"ORGANISATION_NAME","SUBURB","STATE","POSTCODE","LONGITUDE","LATITUDE","NHSD_SERVICE_TYPE","GA_CLASS","Services"
"Roleystone Child Health Centre","Roleystone","WA",6111,116.068176269531,-32.1122817993164,"Maternal, child and family health service","GP",2
"Belgrave Medical Clinic","Tecoma","VIC",3160,145.347091674805,-37.9071464538574,"General practice service","GP",1
"Dr Van Lanh Nguyen Bankstown","Bankstown","NSW",2200,151.032431,-33.918751,"General practice service","GP",42
"Nganampa Health Council - Alice Springs Admin Office","Ciccone","NT",870,133.870742797852,-23.7006855010986,"Aboriginal and Torres Strait Islander health service","GP",1
"Eastbrooke Blacktown Gp Superclinic","Blacktown","NSW",2148,150.910247802734,-33.771427154541,"General practice service","GP",34
"Myhealth Edensor Park","Edensor Park","NSW",2176,150.875152587891,-33.8809509277344,"General practice service","GP",3
"Rostrata Child Health Centre","Willetton","WA",6155,115.893882751465,-32.0497589111328,"Maternal, child and family health service","GP",14
"Eureka Medical And Dental Centre","Ballarat Central","VIC",3350,143.858506,-37.56394982,"General practice service","GP",23
"Narrogin Child Health Centre","Narrogin","WA",6312,117.163101196289,-32.9373168945313,"Maternal, child and family health service","GP",4
"Beckenham Medical Centre","Beckenham","WA",6107,115.965957641602,-32.0134391784668,"General practice service","GP",7
"Camberwell Medical Group","Camberwell","VIC",3124,145.060287475586,-37.8319625854492,"General practice service","GP",17
"Our Medical Caroline Springs","Caroline Springs","VIC",3023,144.74018133,-37.73515494,"General practice service","GP",7
"Varley Nursing Post","Varley","WA",6355,119.511215209961,-32.7939567565918,"Nurse led clinic","GP",1
"Stud Park Medical And Dental Centre","Rowville","VIC",3178,145.235488891602,-37.9188270568848,"General practice service","GP",18
"Maternal And Child Health Centre - Cobden","Cobden","VIC",3266,143.076904296875,-38.3277931213379,"Maternal, child and family health service","GP",4
"Healthone Rylstone Child And Family Health Service","Rylstone","NSW",2849,149.975036621094,-32.8034973144531,"Maternal, child and family health service","GP",2
"Kingsgrove Child And Family Health","Kingsgrove","NSW",2208,151.09814453125,-33.9427108764648,"Maternal, child and family health service","GP",8
"Bundarra Community Health Centre","Bundarra","NSW",2359,151.075942993164,-30.165470123291,"Maternal, child and family health service","GP",1
"Saibai Island Primary Health Care Centre","Saibai Island","QLD",4875,142.621368408203,-9.37798118591309,"General practice service","GP",3
"Doncaster East Family Medical Centre","Doncaster East","VIC",3109,145.161682128906,-37.7917747497559,"General practice service","GP",19
"Maxim Street Health Hub","West Ryde","NSW",2114,151.088697,-33.808419,"General practice service","GP",6
"Darrimba Maarra Aboriginal Health Clinic - Nambucca","Nambucca Heads","NSW",2448,153.001678466797,-30.6408767700195,"Aboriginal and Torres Strait Islander health service","GP",6
"Clifton Hill Clinic","Clifton Hill","VIC",3068,144.997177124023,-37.788459777832,"General practice service","GP",4
"Narromine Community Health Centre Nursing Service","Narromine","NSW",2821,148.239395141602,-32.2429962158203,"Nurse led clinic","GP",5
"Florey Medical Centre","Florey","ACT",2615,149.054000854492,-35.2258491516113,"General practice service","GP",2
"After Hours Gp Canning Vale","Canning Vale","WA",6155,115.940620422363,-32.0901222229004,"General practice service","GP",19
"Moonee Ponds Medical Clinic","Moonee Ponds","VIC",3039,144.926651000977,-37.7590408325195,"General practice service","GP",16
"Lurnea Medical Centre","Lurnea","NSW",2170,150.896927,-33.930885,"General practice service","GP",3
"Peel Youth Medical Service","Mandurah","WA",6210,115.744110107422,-32.5281105041504,"General practice service","GP",18
"Castlecrag Medical Practice","Castlecrag","NSW",2068,151.212707519531,-33.8021392822266,"General practice service","GP",3
"Epping Family Medical Centre","Epping","VIC",3076,145.025588989258,-37.648193359375,"General practice service","GP",36
"Maternal And Child Health Centre - Barwon Heads","Barwon Heads","VIC",3227,144.490768432617,-38.2812271118164,"Maternal, child and family health service","GP",3
"Top Ryde Medical Centre","Ryde","NSW",2112,151.107177734375,-33.8149070739746,"General practice service","GP",17
"Blackwood Family Medical Centre","Blackwood","SA",5051,138.614963,-35.021536,"General practice service","GP",8
"Wagga Wagga Medical Centre","Wagga Wagga","NSW",2650,147.368549,-35.118582,"General practice service","GP",25
"Parkes Community Health Centre General Nursing Service","Parkes","NSW",2870,148.169891357422,-33.1533164978027,"Nurse led clinic","GP",8
"Aboriginal Hacc Access/development Officer Hunter","Newcastle West","NSW",2302,151.757110595703,-32.9249992370606,"Aboriginal and Torres Strait Islander health service","GP",7
"Remede Wellness Medicine","Mosman Park","WA",6012,115.759101867676,-32.0070762634277,"General practice service","GP",5
"Maternal And Child Health Centre - Joy Street - Frankston","Frankston","VIC",3199,145.131729125977,-38.144401550293,"Maternal, child and family health service","GP",38
"Northlands Healthsense Pharmacy","Balcatta","WA",6021,115.829978942871,-31.8731651306152,"Nurse practitioner led clinic","GP",8
"North Street Medical Centre","Midland","WA",6056,116.00605656,-31.88532009,"General practice service","GP",22
"Benalla Health","Benalla","VIC",3672,145.993682861328,-36.5550270080566,"Nurse led clinic","GP",8
"Mountain Gate Medical Centre","Ferntree Gully","VIC",3156,145.273223876953,-37.8849487304688,"General practice service","GP",10
"Greenacre Medical Centre","Greenacre","NSW",2190,151.056930541992,-33.9069557189941,"General practice service","GP",10
"Longford Child Health Centre","Longford","TAS",7301,147.12126159668,-41.5928497314453,"Maternal, child and family health service","GP",3
"Edgewater Boulevard Pharmacy","Maribyrnong","VIC",3032,144.892379760742,-37.7852516174316,"General practice service","GP",9
"Gp Plus Health Care Centre Aldinga","Aldinga Beach","SA",5173,138.464202880859,-35.272876739502,"Maternal, child and family health service","GP",6
"Better Health Medical Centre","Shepparton","VIC",3630,145.401351928711,-36.3734512329102,"General practice service","GP",28
"Northern Health - Northern Hospital","Epping","VIC",3076,145.014587402344,-37.6532287597656,"Maternal, child and family health service","GP",36
"Ochre Medical Centre - Noosa","Noosa Heads","QLD",4567,153.091506958008,-26.3982048034668,"General practice service","GP",9
"Mccrae Village Clinic","Mccrae","VIC",3938,144.927337646484,-38.3493766784668,"General practice service","GP",2
"Waroona Child Health Centre","Waroona","WA",6215,115.92425795,-32.84293558,"Maternal, child and family health service","GP",3
"Glen Iris Medical Group","Glen Iris","VIC",3146,145.050369262695,-37.8629951477051,"General practice service","GP",11
"Bentleigh Medical Centre","Bentleigh","VIC",3204,145.030548095703,-37.9177589416504,"General practice service","GP",13
"Stawell Medical Centre","Stawell","VIC",3380,142.779388427734,-37.0559349060059,"General practice service","GP",8
"Green Square Health","Waterloo","NSW",2017,151.207409,-33.90249,"General practice service","GP",6
"Montrose Medical Practice","Glebe","NSW",2037,151.192031860352,-33.884090423584,"General practice service","GP",8
"Tambellup Child Health Centre","Tambellup","WA",6320,117.643096923828,-34.0441856384277,"Maternal, child and family health service","GP",2
"Wallan Family Practice","Wallan","VIC",3756,144.978271484375,-37.4139213562012,"General practice service","GP",6
"North Coast Medical Centre","Byron Bay","NSW",2481,153.608474731445,-28.6414318084717,"General practice service","GP",12
"Ginninderra Medical And Dental Centre","Belconnen","ACT",2617,149.057281494141,-35.2391586303711,"General practice service","GP",14
"Gosnells Medical Clinic","Gosnells","WA",6110,116.001052856445,-32.0701904296875,"General practice service","GP",12
"Adelaide Hills Medical Clinic - Stirling","Stirling","SA",5152,138.717407226563,-35.0066413879395,"Nurse practitioner led clinic","GP",12
"Ngala Parenting Line","Kensington","WA",6151,115.883583068848,-31.9869594573975,"Maternal, child and family health service","GP",13
"Toowoomba Hospital - Maternity Home Care","South Toowoomba","QLD",4350,151.944269070764,-27.5697596156494,"Maternal, child and family health service","GP",3
"Hillcrest Health Centre","Jacana","VIC",3047,144.914299,-37.684425,"General practice service","GP",3
"Coolaroo Clinic","Coolaroo","VIC",3048,144.931549072266,-37.6645927429199,"General practice service","GP",6
"Two Rocks Child Health Centre","Two Rocks","WA",6037,115.596886779778,-31.4982142660352,"Maternal, child and family health service","GP",4
"Canterbury Family Medical Practice","Canterbury","NSW",2193,151.11098,-33.91595,"General practice service","GP",6
"You Yangs Medical Clinic","Lara","VIC",3212,144.406829833984,-38.0212707519531,"General practice service","GP",7
"Ochre Medical Centre Smithton","Smithton","TAS",7330,145.124435424805,-40.8393821716309,"General practice service","GP",4
"Beachside Doctors","Dromana","VIC",3936,144.96656111,-38.33221443,"General practice service","GP",4
"Tenambit Medical Centre","Tenambit","NSW",2323,151.604467,-32.743578,"General practice service","GP",2
"Bowral Community Health Connecting Care","Bowral","NSW",2576,150.424591064453,-34.484992980957,"Aboriginal and Torres Strait Islander health service","GP",15
"Peak Medical Gpc","Hoppers Crossing","VIC",3029,144.703796386719,-37.8813705444336,"General practice service","GP",19
"Lenah Valley Medical Centre","Lenah Valley","TAS",7008,147.297470092773,-42.8657646179199,"General practice service","GP",5
"Cow Bay Primary Health Centre","Diwan","QLD",4873,145.404357910156,-16.2033748626709,"Maternal, child and family health service","GP",1
"Maternal And Child Health Centre - Badger Creek","Badger Creek","VIC",3777,145.531448364258,-37.6806297302246,"Maternal, child and family health service","GP",1
"Country Doctors Practice","Laidley","QLD",4341,152.394912719727,-27.6273345947266,"General practice service","GP",5
"Trinity Medical Centre - Port Adelaide","Port Adelaide","SA",5015,138.507904052734,-34.8522148132324,"General practice service","GP",4
"Ali Curung Primary Health Centre","Ali Curung","NT",872,134.4052917,-21.0034615,"General practice service","GP",1
"Ramsgate Child And Family Health","Sans Souci","NSW",2219,151.135589599609,-33.9869956970215,"Maternal, child and family health service","GP",6
"Vermont Health Care - Boronia Rd","Vermont","VIC",3133,145.196823120117,-37.8368721008301,"General practice service","GP",3
"South Lake Child Health Centre","South Lake","WA",6164,115.838485717773,-32.1105346679688,"Maternal, child and family health service","GP",8
"Emerald Medical Centre","Emerald","VIC",3782,145.441390991211,-37.9323806762695,"General practice service","GP",12
"Wollongong Hospital","Wollongong","NSW",2500,150.883865303429,-34.424219450629,"Nurse led clinic","GP",27
"Wallan Medical & Specialist Centre","Wallan","VIC",3756,144.977279663086,-37.41455078125,"General practice service","GP",6
"Mount Medical Clinic","Belgrave","VIC",3160,145.349227905273,-37.9081192016602,"General practice service","GP",3
"Maternal & Child Health Centre - Arnold's Creek","Harkness","VIC",3337,144.545074462891,-37.6678733825684,"Maternal, child and family health service","GP",1
"Rodd Point Medical Practice","Rodd Point","NSW",2046,151.141159057617,-33.8657493591309,"General practice service","GP",2
"Wentworthville Medical Centre","Wentworthville","NSW",2145,150.971557617188,-33.8107452392578,"General practice service","GP",12
"Lakes Drive Family Practice","Glenmore Park","NSW",2745,150.673156738281,-33.784366607666,"General practice service","GP",3
"Saibai Island Primary Health Care Centre","Saibai Island","QLD",4875,142.621838,-9.377753,"Maternal, child and family health service","GP",3
"Ocean Shores Medical Centre","Ocean Shores","NSW",2483,153.545883178711,-28.5254096984863,"General practice service","GP",4
"Bendigo Community Health Services - Eaglehawk","Bendigo","VIC",3550,144.28138917,-36.76149442,"General practice service","GP",28
"The Medical Clinic Beaconsfield","Beaconsfield","VIC",3807,145.368621826172,-38.0454902648926,"General practice service","GP",12
"Women's And Children's Hospital","North Adelaide","SA",5006,138.600341796875,-34.9118385314941,"Aboriginal and Torres Strait Islander health service","GP",9
"Nairne Medical Clinic","Nairne","SA",5252,138.916076660156,-35.0364723205566,"General practice service","GP",2
"Hughes Clinic","Unley","SA",5061,138.606948852539,-34.9488029479981,"General practice service","GP",6
"Graceville Medical","Graceville","QLD",4075,152.980865478516,-27.5245475769043,"General practice service","GP",2
"Central Gippsland Family Practice","Moe","VIC",3825,146.2626113,-38.1759312,"General practice service","GP",8
"Our Medical Loagnholme","Loganholme","QLD",4129,153.192916870117,-27.6704692840576,"General practice service","GP",10
"Phillipson Street Clinic","Wangaratta","VIC",3677,146.305084228516,-36.3520278930664,"General practice service","GP",19
"The Western Medical Centre","Yarraville","VIC",3013,144.882736206055,-37.812744140625,"General practice service","GP",7
"Maternal And Child Health Centre - Ferntree Gully - Wattleview","Ferntree Gully","VIC",3156,145.27555847168,-37.8749618530273,"Maternal, child and family health service","GP",10
"Albemarle Medical Practice","Rose Bay","NSW",2029,151.272018432617,-33.8753471374512,"General practice service","GP",10
"Karuna-Maya Medicine Tree","Jan Juc","VIC",3228,144.299224853516,-38.3494720458984,"General practice service","GP",1
"Coogee Beach Doctors","Coogee","NSW",2034,151.256614368865,-33.9231374346149,"General practice service","GP",6
"Bega Garnbirringu Health Service Aboriginal Corporation","Kalgoorlie","WA",6430,121.476661682129,-30.74658203125,"Aboriginal and Torres Strait Islander health service","GP",11
"White Cliffs Health Service","White Cliffs","NSW",2836,143.089996337891,-30.8503017425537,"Nurse led clinic","GP",1
"Midlands Multi-Purpose Health Centre","Oatlands","TAS",7120,147.36919505,-42.29884918,"Maternal, child and family health service","GP",5
"Revive Cosmetic Medicine And Skin Cancer Clinic","Shailer Park","QLD",4128,153.186294555664,-27.6614437103272,"General practice skin cancer service","GP",4
"Verve Family Doctors","Donvale","VIC",3111,145.179351806641,-37.7972297668457,"General practice service","GP",4
"Bauhinia Health","Katherine","NT",850,132.26129,-14.46259,"General practice service","GP",12
"Your Health Place Medical Centre","Glen Huntly","VIC",3163,145.043212890625,-37.889705657959,"Maternal, child and family health service","GP",6
"Kilmore Medical Centre","Kilmore","VIC",3764,144.949920654297,-37.2923774719238,"General practice service","GP",8
"Lorne Medical Centre","Lorne","VIC",3232,143.980834960938,-38.5454788208008,"General practice service","GP",4
"Ncn Health - Cobram Campus","Cobram","VIC",3644,145.651092529297,-35.9165306091309,"Nurse led clinic","GP",9
"Cunninghame Arm Medical Centre","Lakes Entrance","VIC",3909,148.000473022461,-37.8764533996582,"General practice service","GP",4
"East Ivanhoe Medical Clinic","Ivanhoe East","VIC",3079,145.058929443359,-37.7721710205078,"General practice service","GP",1
"Mylocaldoc Caloundra","Caloundra","QLD",4551,153.11965209,-26.80343223,"Nurse practitioner led clinic","GP",17
"Banksia Medical & Health","Esperance","WA",6450,121.89258,-33.85933,"General practice service","GP",7
"Naatsihwp - National Association Of Aboriginal And Torres Strait Islander Health Workers And Practitioners","Phillip","ACT",2606,149.08854675293,-35.3527145385742,"Aboriginal and Torres Strait Islander health service","GP",7
"Cannington Medical Centre","Cannington","WA",6107,115.924736022949,-32.012020111084,"General practice service","GP",9
"Murray Medical Centre","Greenfields","WA",6210,115.7644102,-32.53048274,"General practice service","GP",9
"Wambo Medical","Jandowae","QLD",4410,151.109275,-26.781142,"General practice service","GP",5
"Bondi Junction Medical And Dental Centre","Bondi Junction","NSW",2022,151.249435424805,-33.8927688598633,"General practice service","GP",27
"Wagga Wagga Community Health Service Child & Family Ashmont Mobile Clinic","Wagga Wagga","NSW",2650,147.356994628906,-35.1185607910156,"Maternal, child and family health service","GP",25
"Ochre Medical Centre - Garran","Garran","ACT",2605,149.107833862305,-35.3420257568359,"General practice service","GP",9
"Waramanga Medical Centre","Waramanga","ACT",2611,149.059524536133,-35.3525543212891,"General practice service","GP",2
"Yarragon Medical Centre","Yarragon","VIC",3823,146.064056396484,-38.2042541503906,"General practice service","GP",4
"Nicholson Road Medical Group","Canning Vale","WA",6155,115.934814453125,-32.0644187927246,"General practice service","GP",19
"Midland Child Health Centre","Midland","WA",6056,116.00477,-31.88684,"Maternal, child and family health service","GP",22
"Forrest Road Medical Centre","Padbury","WA",6025,115.763771057129,-31.8005657196045,"General practice service","GP",4
"Mount Gambier Family Health","Mount Gambier","SA",5290,140.785766601563,-37.8318595886231,"General practice service","GP",12
"Aberfoyle Park Medical Centre","Aberfoyle Park","SA",5159,138.595428466797,-35.0623474121094,"General practice service","GP",3
"Nimbin Medical Centre","Nimbin","NSW",2480,153.223037719727,-28.5975666046143,"General practice service","GP",2
"Dpv Health - Gp Superclinic","Mill Park","VIC",3082,145.066360473633,-37.6502571105957,"General practice service","GP",19
"Grantham Street General Practice","Brunswick West","VIC",3055,144.949340820313,-37.7710151672363,"General practice service","GP",8
"St John Of God Hospital - Berwick","Berwick","VIC",3806,145.345077514648,-38.0460510253906,"Maternal, child and family health service","GP",24
"Birkenhead Medical Centre","Drummoyne","NSW",2047,151.162216186523,-33.8558311462402,"General practice service","GP",6
"Sorrento Medical Centre - Wa","Sorrento","WA",6020,115.759033203125,-31.8227767944336,"General practice service","GP",4
"Maternal And Child Health Centre - Red Hill","Red Hill","VIC",3937,145.012145996094,-38.369197845459,"Maternal, child and family health service","GP",5
"Myclinic Elsternwick","Elsternwick","VIC",3185,145.004531860352,-37.884937286377,"General practice skin cancer service","GP",7
"Atherton Hospital","Atherton","QLD",4883,145.483507035395,-17.2663894792316,"Maternal, child and family health service","GP",10
"Woollahra Family Medical Practice","Woollahra","NSW",2025,151.2477546,-33.8891995,"General practice service","GP",5
"Point Lonsdale Medical Group","Point Lonsdale","VIC",3225,144.619155883789,-38.2732925415039,"General practice service","GP",2
"Cheltenham Medical Centre","Cheltenham","VIC",3192,145.073333740234,-37.96728515625,"General practice service","GP",14
"Ochre Health Medical Centre Tea Gardens","Tea Gardens","NSW",2324,152.150588989258,-32.6518630981445,"General practice service","GP",2
"Ochre Lancefield Country Practice","Lancefield","VIC",3435,144.734085083008,-37.2775573730469,"General practice service","GP",4
"Wedderburn Health Clinic","Wedderburn","VIC",3518,143.611038208008,-36.4180297851563,"General practice service","GP",3
"Hindmarsh Gp","Hindmarsh","SA",5007,138.570007324219,-34.9030990600586,"General practice service","GP",2
"Hallam Medical Group","Hallam","VIC",3803,145.271453857422,-38.0054473876953,"General practice service","GP",6
"Multicare Family Medical Centre","Ashfield","NSW",2131,151.124893188477,-33.8891639709473,"General practice service","GP",18
"Adelaide Vintage Health","Mount Barker","SA",5251,138.8700817,-35.08147122,"General practice service","GP",19
"Burslem Medical Centre","Maddington","WA",6109,115.977158,-32.04966,"General practice service","GP",10
"Headspace Ballarat","Ballarat Central","VIC",3350,143.85982597,-37.56095852,"General practice service","GP",23
"Nundah Doctors Surgery - Wavell Heights","Wavell Heights","QLD",4012,153.053070068359,-27.385986328125,"General practice service","GP",3
"Whitsunday Doctors Service Proserpine","Proserpine","QLD",4800,148.583312988281,-20.4034824371338,"General practice service","GP",8
"Campsie Day Surgery","Campsie","NSW",2194,151.098937988281,-33.9109649658203,"General practice service","GP",26
"Shire Of Campaspe","Echuca","VIC",3564,144.742919921875,-36.1253204345703,"Maternal, child and family health service","GP",14
"Maddington Doctors Practice","Maddington","WA",6109,115.97825,-32.04934,"General practice service","GP",10
"Our Medical Penrith","Jamisontown","NSW",2750,150.672927856445,-33.7698974609375,"General practice service","GP",3
"Morgan Street Healthcare Clinic","Wagga Wagga","NSW",2650,147.359619140625,-35.1143188476563,"General practice service","GP",25
"Maternal And Child Health Centre - Irymple","Irymple","VIC",3498,142.163452148438,-34.2342529296875,"Maternal, child and family health service","GP",3
"Randwick Medical","Randwick","NSW",2031,151.24186706543,-33.9174575805664,"General practice service","GP",29
"Kyabram District Health Service","Kyabram","VIC",3620,145.042190551758,-36.315559387207,"Aboriginal and Torres Strait Islander health service","GP",8
"Wetherill Park Family Practice","Wetherill Park","NSW",2164,150.909622192383,-33.8509559631348,"General practice service","GP",6
"Maternal And Child Health Centre - Nar Nar Goon","Nar Nar Goon","VIC",3812,145.569290161133,-38.0826530456543,"Maternal, child and family health service","GP",1
"The Grange Family Medical Centre","Port Macquarie","NSW",2444,152.908462524414,-31.4411697387695,"General practice service","GP",31
"Towerhill Medical Centre","Frankston","VIC",3199,145.137100219727,-38.1628532409668,"General practice service","GP",38
"Moruya General Practice","Moruya","NSW",2537,150.080246,-35.911023,"General practice service","GP",7
"Indian Ocean Territory Health Service","Christmas Island","WA",6798,105.686676025391,-10.4393396377563,"General practice service","GP",2
"Family Medical Centre - Ballina","Ballina","NSW",2478,153.564498901367,-28.8704738616943,"General practice service","GP",14
"Ochre Medical Centre Coonamble","Coonamble","NSW",2829,148.38974119761,-30.9519526794874,"General practice service","GP",5
"The Clinic Altona","Altona","VIC",3018,144.829513549805,-37.8680038452148,"General practice service","GP",7
"Condobolin Primary And Community Health Nursing Service","Condobolin","NSW",2877,147.152252197266,-33.0817337036133,"Nurse led clinic","GP",4
"Port Hedland Medical Centre","Port Hedland","WA",6721,118.577003479004,-20.3110427856445,"General practice service","GP",2
"Millmerran Multipurpose Health Services","Millmerran","QLD",4357,151.262786865234,-27.8796863555908,"Maternal, child and family health service","GP",7
"Maclean Community Health Centre","Maclean","NSW",2463,153.20182800293,-29.4537525177002,"Aboriginal and Torres Strait Islander health service","GP",8
"Bankstown Medical & Dental Centre","Bankstown","NSW",2200,151.035446166992,-33.9141731262207,"General practice service","GP",42
"Tharawal Aboriginal Corporation","Airds","NSW",2560,150.83359719,-34.08107801,"Nurse practitioner led clinic","GP",2
"Station Medical Centre","Melton South","VIC",3338,144.573196411133,-37.7022933959961,"General practice service","GP",4
"Maternal And Child Health Centre -East Preston - Sylvester Grove","Preston","VIC",3072,145.018966674805,-37.7376327514648,"Maternal, child and family health service","GP",21
"Greens Medical Group","Dandenong South","VIC",3175,145.19590366,-38.01133993,"General practice service","GP",3
"Centacare Caboolture Services","Caboolture","QLD",4510,152.976806640625,-27.0809707641602,"Aboriginal and Torres Strait Islander health service","GP",21
"Doreen Family Medical Practice","Doreen","VIC",3754,145.117691040039,-37.6043014526367,"General practice service","GP",9
"Blackwater Multipurpose Health Service","Blackwater","QLD",4717,148.878631591797,-23.5716724395752,"Nurse led clinic","GP",4
"Campbelltown Hospital Antenatal Services Macquarie Fields - Anc Outreach Clinic","Campbelltown","NSW",2560,150.803466796875,-34.0800552368164,"Maternal, child and family health service","GP",35
"Beach End Medical Clinic 36 Main Street Mornington 3931 Vic","Mornington","VIC",3931,145.037994384766,-38.2174911499023,"General practice service","GP",27
"Cremorne Early Childhood Health Centre","Cremorne","NSW",2090,151.230484008789,-33.8271064758301,"Maternal, child and family health service","GP",5
"Mingenew Health Centre","Mingenew","WA",6522,115.442909240723,-29.1941680908203,"Maternal, child and family health service","GP",1
"Health On Grange","Flinders Park","SA",5025,138.538467407227,-34.9054985046387,"General practice service","GP",2
"Totalcare Medical Centre","Laverton","VIC",3028,144.77580623,-37.85349712,"General practice service","GP",8
"Yinnar Clinic","Yinnar","VIC",3869,146.32822608,-38.32214554,"General practice service","GP",4
"West Gippsland Hospital","Warragul","VIC",3820,145.927825927734,-38.1729240417481,"Nurse led clinic","GP",13
"Ufs Medical Centre - Booval","Booval","QLD",4304,152.789611816406,-27.6130294799805,"General practice service","GP",4
"Roma Continence Advisory Service","Roma","QLD",4455,148.77555847168,-26.5685482025147,"Nurse led clinic","GP",10
"Hay Street Medical Centre","Subiaco","WA",6008,115.8305936,-31.9473651,"General practice service","GP",17
"Browns Plains Medical & Dental Centre","Browns Plains","QLD",4118,153.03694152832,-27.6635818481445,"General practice service","GP",15
"Sutherland Child And Family Health","Sutherland","NSW",2232,151.056732177734,-34.0319442749023,"Maternal, child and family health service","GP",6
"Camden Hospital University Medical Clinic - Continence Clinic","Camden","NSW",2570,150.693450927734,-34.0636253356934,"Nurse led clinic","GP",11
"Holistic Health House","Fawkner","VIC",3060,144.9658203125,-37.7014503479004,"General practice service","GP",8
"St Antony Medical Centre","Pakenham","VIC",3810,145.488479614258,-38.0717391967773,"General practice service","GP",21
"Dpv Health - Coleraine Street","Broadmeadows","VIC",3047,144.918121337891,-37.6770210266113,"General practice service","GP",16
"Coomealla Health Aboriginal Corporation Dareton","Dareton","NSW",2717,142.044235229492,-34.0950660705566,"Maternal, child and family health service","GP",4
"Maternal & Child Health Centre - Tongala","Tongala","VIC",3621,144.949035644531,-36.2502288818359,"Maternal, child and family health service","GP",2
"Dapto Healthcare Medical Centre","Dapto","NSW",2530,150.79573059082,-34.4927520751953,"General practice service","GP",9
"Your Community Health - East Reservoir","Reservoir","VIC",3073,145.030395507813,-37.7316246032715,"Maternal, child and family health service","GP",23
"Devonport Family Medical Centre","Devonport","TAS",7310,146.360717773438,-41.1821327209473,"General practice service","GP",11
"Trangie Multi Purpose Service Community Health Service","Trangie","NSW",2823,147.977294921875,-32.0305862426758,"Nurse led clinic","GP",5
"Oberon Medical Centre","Oberon","NSW",2787,149.855072021484,-33.7042083740234,"General practice service","GP",6
"Norwest General Practice","Bella Vista","NSW",2153,150.944473266602,-33.7330131530762,"General practice service","GP",11
"Melbourne North Medical Clinic","Melbourne","VIC",3000,144.95812664,-37.8042088,"General practice service","GP",57
"Ingle Farm Medical Centre","Ingle Farm","SA",5098,138.64974431,-34.82995382,"General practice service","GP",4
"Westgate Health Co-Op Limited - Newport","Newport","VIC",3015,144.88752746582,-37.8440742492676,"General practice service","GP",10
"North St Ives Medical Practice","St Ives Chase","NSW",2075,151.159713745117,-33.7111625671387,"General practice service","GP",2
"Shark Bay Health Centre","Denham","WA",6537,113.536224365234,-25.9277019500732,"Nurse led clinic","GP",2
"Raymond Mcmahon Medical Centre","Endeavour Hills","VIC",3802,145.261138916016,-37.9788627624512,"General practice service","GP",7
"Katoomba Community Health Centre","Katoomba","NSW",2780,150.313171386719,-33.7179222106934,"Nurse led clinic","GP",6
"Goldfields Womens Health Care Centre","Kalgoorlie","WA",6430,121.472869873047,-30.7438678741455,"Nurse led clinic","GP",11
"Ochre Medical Centre Cohuna","Cohuna","VIC",3568,144.21875,-35.8061065673828,"General practice service","GP",2
"Community Carers' Team","Rozelle","NSW",2039,151.16810576,-33.86549686,"Maternal, child and family health service","GP",7
"Medical On William","Port Macquarie","NSW",2444,152.9090945,-31.4308406,"General practice service","GP",31
"Beaudesert General Practice And Skin Cancer Clinic","Beaudesert","QLD",4285,152.999237060547,-27.9904232025147,"General practice service","GP",11
"Powell Street Family Practice","Yagoona","NSW",2199,151.034896850586,-33.9049682617188,"General practice service","GP",8
"Kingsway Drive Medical Centre","Lalor","VIC",3075,145.004913330078,-37.6644706726074,"General practice service","GP",9
"Maternal And Child Health Centre - Mt Waverley - Sherwood Road","Mount Waverley","VIC",3149,145.12760925293,-37.8788375854492,"Maternal, child and family health service","GP",18
"Moonee Ponds Medical Centre","Moonee Ponds","VIC",3039,144.917938232422,-37.7660713195801,"General practice service","GP",16
"Mamu Health Service Limited - Babinda","Babinda","QLD",4861,145.921875,-17.3442840576172,"Aboriginal and Torres Strait Islander health service","GP",6
"Health Dew Medical Centre","Hampton Park","VIC",3976,145.25666809082,-38.0341987609863,"General practice service","GP",9
"Mungindi Aboriginal Health Service Nsw","Mungindi","NSW",2406,148.98902752,-28.9764094,"Aboriginal and Torres Strait Islander health service","GP",4
"Katherine Community Health Centre","Katherine","NT",850,132.264144897461,-14.4641628265381,"Maternal, child and family health service","GP",12
"Family Medical Practice @ 2325","Nulkaba","NSW",2325,151.350250244141,-32.8081741333008,"General practice service","GP",1
"Moreton Atsichs - Morayfield","Morayfield","QLD",4506,152.94974696,-27.111846,"Aboriginal and Torres Strait Islander health service","GP",11
"Morayfield Child Health","Caboolture South","QLD",4510,152.947601318359,-27.0978698730469,"Maternal, child and family health service","GP",3
"Bass Coast Health - Wonthaggi Hospital","Wonthaggi","VIC",3995,145.581314086914,-38.6082763671875,"Community cancer service","GP",8
"Ochre Medical Centre Sippy Downs","Sippy Downs","QLD",4556,153.064300537109,-26.7130298614502,"General practice service","GP",8
"Matthew Talbot Hostel Primary Healthcare Clinic","Woolloomooloo","NSW",2011,151.218704223633,-33.8735008239746,"Nurse led clinic","GP",5
"Dubbocare Family Practice","Dubbo","NSW",2830,148.60498046875,-32.2519950866699,"General practice service","GP",32
"Coolum Community Health","Coolum Beach","QLD",4573,153.090408325195,-26.5307464599609,"Maternal, child and family health service","GP",8
"Carlyle Community Health","East Mackay","QLD",4740,149.18215868,-21.14249499,"Maternal, child and family health service","GP",3
"Koondoola Child Development Service","Koondoola","WA",6064,115.861976623535,-31.8387298583984,"Maternal, child and family health service","GP",3
"Fairfield District Medical Centre","Fairfield Heights","NSW",2165,150.938217163086,-33.8622817993164,"General practice service","GP",7
"Papunya Community Health Centre","Papunya","NT",872,131.90885925293,-23.2043933868408,"Nurse led clinic","GP",1
"Lang Lang Community Family Medicine","Lang Lang","VIC",3984,145.56217956543,-38.2648696899414,"General practice service","GP",3
"Australian Skin Cancer Clinics Prospect","Prospect","SA",5082,138.60224,-34.8827,"General practice skin cancer service","GP",14
"Knox City Council - Civic Centre Customer Enquiries","Wantirna South","VIC",3152,145.245498657227,-37.8711318969727,"Maternal, child and family health service","GP",13
"Surrey Hills Medical Centre","Surrey Hills","VIC",3127,145.09769,-37.82252,"General practice service","GP",9
"Seaford Beach Family Clinic","Seaford","VIC",3198,145.126205444336,-38.1024589538574,"General practice service","GP",10
"Orion Medical Centre","Upper Ferntree Gully","VIC",3156,145.311492919922,-37.8938026428223,"General practice service","GP",4
"Bridge Clinic - Standen Street","Murray Bridge","SA",5253,139.272766113281,-35.1217842102051,"General practice service","GP",11
"Westminster Family Medical Practice","Westminster","WA",6061,115.837821960449,-31.8683242797852,"General practice service","GP",7
"Galston Community Health Centre","Galston","NSW",2159,151.045913696289,-33.6509742736816,"Maternal, child and family health service","GP",4
"Clare Lane Midwifery Services","Mitcham","VIC",3132,145.207382202148,-37.8106918334961,"Maternal, child and family health service","GP",7
"Coen Apunipima Health Centre","Coen","QLD",4892,143.200781,-13.944593,"General practice service","GP",3
"Malvern Road Medical Centre","Glenwood","NSW",2768,150.922180175781,-33.7339820861816,"General practice service","GP",6
"Kurri Kurri Hospital","Kurri Kurri","NSW",2327,151.462966918945,-32.8255233764648,"Nurse led clinic","GP",6
"Medi7 - St Kilda Rd","Melbourne","VIC",3004,144.979309082031,-37.8445930480957,"General practice service","GP",57
"Well On Bay","Port Melbourne","VIC",3207,144.94086166,-37.84068576,"General practice service","GP",10
"Bidyadanga Health Clinic","Broome","WA",6725,122.591186523438,-18.049711227417,"Maternal, child and family health service","GP",12
"Asylum Seeker Resource Centre","Footscray","VIC",3011,144.898712158203,-37.8032341003418,"General practice service","GP",31
"Leichhardt Medical Centre - Norton Street","Leichhardt","NSW",2040,151.157272338867,-33.8877410888672,"General practice service","GP",17
"Maternal And Child Health Centre - Coldstream","Coldstream","VIC",3770,145.381805419922,-37.733154296875,"Maternal, child and family health service","GP",3
"Canning Medical Centre","Fremantle","WA",6160,115.752098083496,-32.053035736084,"General practice service","GP",17
"Headspace Melton","Melton South","VIC",3338,144.57448522,-37.70262945,"General practice service","GP",4
"Double Bay Doctors","Double Bay","NSW",2028,151.244827270508,-33.8769187927246,"Maternal, child and family health service","GP",7
"Cowra Medical Associates","Cowra","NSW",2794,148.695129394531,-33.8356704711914,"General practice service","GP",7
"Wilora Community Health Centre","Wilora","NT",872,133.729782104492,-21.7420558929443,"Aboriginal and Torres Strait Islander health service","GP",1
"Maternal And Child Health Centre - Timboon","Timboon","VIC",3268,142.977325439453,-38.4856796264648,"Maternal, child and family health service","GP",4
"Bribie Island Child Health","Bongaree","QLD",4507,153.159164428711,-27.0834922790527,"Maternal, child and family health service","GP",10
"Ebm Family Medical Practice","Mawson Lakes","SA",5095,138.607788085938,-34.802303314209,"General practice service","GP",8
"Warringah Medical And Dental Centre","Brookvale","NSW",2100,151.268020629883,-33.765079498291,"General practice service","GP",12
"Acacia Ridge Child Health Service (Early Years Centre)","Acacia Ridge","QLD",4110,153.01594543457,-27.5811138153076,"Maternal, child and family health service","GP",8
"Macarthur Child And Family Health Nursing Sustained Health Home Visiting Program - Bulundidi Gudaga","Narellan","NSW",2567,150.735412597656,-34.0428314208984,"Maternal, child and family health service","GP",11
"Corrimal Medical & Dental Centre A For Health Practice","Corrimal","NSW",2518,150.895950317383,-34.3718795776367,"General practice service","GP",6
"Blessed Health Care","Campsie","NSW",2194,151.101943969727,-33.912223815918,"General practice service","GP",26
"Banora Point Medical Centre","Banora Point","NSW",2486,153.521667480468,-28.2137756347656,"General practice service","GP",5
"Backbone Youth Arts","East Brisbane","QLD",4169,153.043182373047,-27.4783687591553,"Maternal, child and family health service","GP",5
"Bayswater Child Health Centre","Bayswater","WA",6053,115.914001464844,-31.9198989868164,"Maternal, child and family health service","GP",12
"Christies Beach Medical Centre","Christies Beach","SA",5165,138.481811523438,-35.1395416259766,"General practice service","GP",8
"Dubbo Child & Adolescent Community Mental Health Service","Dubbo","NSW",2830,148.603637695313,-32.2519683837891,"Maternal, child and family health service","GP",32
"Yass  Child And Family Health Service","Yass","NSW",2582,148.906829833984,-34.8439674377441,"Maternal, child and family health service","GP",8
"Cancer Council Queensland - Olive Mcmahon Lodge","East Toowoomba","QLD",4350,151.97527,-27.56664,"Community cancer service","GP",15
"Myhealth Darling Square","Sydney","NSW",2000,151.201309204102,-33.8788642883301,"General practice service","GP",64
"Ochre Health Medical Centre - King Island","Currie","TAS",7256,143.85789406,-39.92981715,"General practice service","GP",3
"First Health Medical Centre - Hampton Park","Hampton Park","VIC",3976,145.267028808594,-38.0352401733398,"General practice service","GP",9
"Merge Health","Richmond","VIC",3121,145.0140643,-37.81237145,"General practice service","GP",37
"Carlingford Medical Practice","Carlingford","NSW",2118,151.05827331543,-33.7643775939941,"General practice service","GP",15
"Lake Grace Child Health Centre","Lake Grace","WA",6353,118.453460693359,-33.1013908386231,"Maternal, child and family health service","GP",3
"Menzies Child Health Centre","Menzies","WA",6436,121.023292541504,-29.6887741088867,"Maternal, child and family health service","GP",2
"Stirling Medical Centre","Cranbourne North","VIC",3977,145.267879,-38.069779,"General practice service","GP",8
"Palmers Medical Centre Woodlea","Aintree","VIC",3336,144.671990756139,-37.7227412393686,"General practice service","GP",2
"Port Broughton District Hospital And Health Services","Port Broughton","SA",5522,137.933893711763,-33.6009506747762,"Maternal, child and family health service","GP",4
"Ochre Medical Centre Lithgow","Lithgow","NSW",2790,150.155685424805,-33.4813575744629,"General practice service","GP",5
"Kambalda Health Centre","Kambalda West","WA",6442,121.620086669922,-31.2091426849365,"Maternal, child and family health service","GP",2
"Cancer Council Queensland - Marylyn Mayo Lodge","Woree","QLD",4868,145.74019854,-16.94883405,"Community cancer service","GP",4
"Glenrock Country Practice - Wagga Wagga","Glenfield Park","NSW",2650,147.332458496094,-35.13671875,"Maternal, child and family health service","GP",1
"The Rowley Road Clinic","Aldinga Beach","SA",5173,138.46061706543,-35.2780303955078,"General practice service","GP",6
"Wghg Rawson Community Health Centre","Rawson","VIC",3825,146.397186279297,-37.956901550293,"Nurse led clinic","GP",1
"Our Medical Home Marsden Park","Marsden Park","NSW",2765,150.840393066406,-33.7197456359863,"General practice service","GP",5
"Capella Outpatients Clinic","Capella","QLD",4723,148.021896362305,-23.0802478790283,"Nurse led clinic","GP",2
"Young Street Medical And Dental Centre Frankston","Frankston","VIC",3199,145.124084472656,-38.1452484130859,"General practice service","GP",38
"Ochre Medical Centre - Hobart","Hobart","TAS",7000,147.32292611,-42.88551342,"General practice service","GP",19
"Algester Star Doctors","Algester","QLD",4115,153.032165527344,-27.6100387573242,"General practice service","GP",1
"Magnetic Island Health Service Centre","Nelly Bay","QLD",4819,146.849853515625,-19.1574935913086,"Maternal, child and family health service","GP",4
"Gawler Health Service","Gawler East","SA",5118,138.755218505859,-34.5932121276856,"Aboriginal and Torres Strait Islander health service","GP",6
"St Luke The Physician Medical And Dental Centre","Raby","NSW",2566,150.819717407227,-34.025577545166,"General practice service","GP",5
"Tweed City Family Practice","Tweed Heads South","NSW",2486,153.545812,-28.201045,"General practice service","GP",7
"Ripponlea Medical","Ripponlea","VIC",3185,144.993388,-37.877262,"General practice service","GP",2
"Westmead Medical Centre","Westmead","NSW",2145,150.97932434082,-33.8062629699707,"General practice service","GP",17
"Deniliquin Palliative Care Service","Deniliquin","NSW",2710,144.962036132813,-35.5240516662598,"Nurse led clinic","GP",7
"Macarthur Child Family Health Nursing - Oran Park","Oran Park","NSW",2570,150.74055480957,-34.0000534057617,"Maternal, child and family health service","GP",4
"Padstow Parade Clinic","Padstow","NSW",2211,151.032379150391,-33.9527473449707,"General practice service","GP",9
"Ochre Medical Centre - St Helens","St Helens","TAS",7216,148.25145781,-41.32265778,"General practice service","GP",3
"Maternal And Child Health Centre - Dingee","Dingee","VIC",3571,144.230895996094,-36.3732490539551,"Maternal, child and family health service","GP",2
"Mitcham General Practice","Kingswood","SA",5062,138.609391,-34.972836,"General practice service","GP",9
"Woy Woy Community Health Centre","Woy Woy","NSW",2256,151.319808959961,-33.4973297119141,"Maternal, child and family health service","GP",10
"Murchison Medical Clinic","Murchison","VIC",3610,145.214401245117,-36.6183929443359,"General practice service","GP",2
"Prime Medical Centre","Thornlie","WA",6108,115.950557836342,-32.068892760395,"General practice service","GP",8
"Read Street Medical & Skin Centre","Rockingham","WA",6168,115.74096,-32.29177,"General practice service","GP",15
"Maternal And Child Health Centre - Monbulk","Monbulk","VIC",3793,145.409133911133,-37.8750839233398,"Maternal, child and family health service","GP",5
"Angurugu Primary Health Centre","Angurugu","NT",822,136.461410522461,-13.9814653396606,"Maternal, child and family health service","GP",1
"Atticus Health - Bittern","Bittern","VIC",3918,145.177169799805,-38.3364944458008,"General practice service","GP",2
"Myhealth Point Cook","Point Cook","VIC",3030,144.728713989258,-37.8980216979981,"General practice service","GP",18
"The Townsville Hospital - Child And Youth Mental Health Service - Aboriginal And Torres Strait Islander","Douglas","QLD",4814,146.761596679688,-19.3206367492676,"Aboriginal and Torres Strait Islander health service","GP",7
"Belair Medical","Belair","SA",5052,138.622802734375,-34.9992904663086,"General practice service","GP",3
"Crookwell District Hospital","Crookwell","NSW",2583,149.468109130859,-34.4640731811523,"Maternal, child and family health service","GP",7
"Mukinbudin Nursing Post","Mukinbudin","WA",6479,118.206466674805,-30.9157295227051,"Nurse led clinic","GP",1
"Victoria Tower Medical","Burwood","NSW",2134,151.105545043945,-33.8754692077637,"General practice service","GP",28
"Noosa Community Health Centre","Noosa Heads","QLD",4567,153.090713500977,-26.3964347839355,"Maternal, child and family health service","GP",9
"Brewarrina Health Service Ambulatory Care Clinic","Brewarrina","NSW",2839,146.863677978516,-29.961763381958,"Nurse led clinic","GP",5
"Leichhardt House Medical Centre","Centenary Heights","QLD",4350,151.964141845703,-27.5808982849121,"General practice service","GP",2
"All Medical","Wantirna South","VIC",3152,145.221664428711,-37.8763732910156,"General practice service","GP",13
"Wellbeing Mclaren Vale","Mclaren Vale","SA",5171,138.545288085938,-35.2214050292969,"General practice service","GP",3
"Barmera Medical Clinic","Barmera","SA",5345,140.47102355957,-34.248779296875,"General practice service","GP",3
"Taree Community Health Centre Palliative Care Service","Taree","NSW",2430,152.455902099609,-31.9094219207764,"Nurse led clinic","GP",19
"Marriott Waters Family & Children's Centre","Lyndhurst","VIC",3975,145.251220703125,-38.0719413757324,"Maternal, child and family health service","GP",3
"Frenchs Forest Doctors","Frenchs Forest","NSW",2086,151.243408203125,-33.7509002685547,"General practice service","GP",7
"South Side Medical","East Mackay","QLD",4740,149.18575794,-21.14853416,"General practice service","GP",3
"Earlwood Child And Family Health Service","Earlwood","NSW",2206,151.124481201172,-33.9274215698242,"Maternal, child and family health service","GP",12
"Bicheno General Practice","Bicheno","TAS",7215,148.296920776367,-41.8740730285645,"General practice service","GP",2
"North Blackwater General Practice","Blackwater","QLD",4717,148.888565063477,-23.5749435424805,"General practice service","GP",4
"Warraber Island Primary Health Care Centre","Warraber Islet","QLD",4875,142.82457,-10.208223,"Nurse led clinic","GP",1
"Street Doctor (360 Street Doctor)","Seville Grove","WA",6112,116.00290081,-32.13329521,"General practice service","GP",3
"Maternal And Child Health Centre - Diamond Creek","Diamond Creek","VIC",3089,145.154006958008,-37.6745071411133,"Maternal, child and family health service","GP",5
"Alpha Medical Centre - Seven Hills","Seven Hills","NSW",2147,150.932540893555,-33.7754669189453,"General practice service","GP",16
"Medical & Aviation Centre Wolli Creek","Wolli Creek","NSW",2205,151.15410836,-33.93265513,"General practice service","GP",7
"Medical One - Taylors Lakes","Taylors Lakes","VIC",3038,144.800582885742,-37.7021217346191,"General practice service","GP",10
"Dandenong City Clinic","Dandenong","VIC",3175,145.215255737305,-37.9888916015625,"General practice service","GP",35
"H And S L Cohen - Family Medical Practice","Caulfield","VIC",3162,145.024475097656,-37.8804435729981,"General practice service","GP",3
"West Belconnen Child And Family Centre","Holt","ACT",2615,149.017669677734,-35.2224235534668,"Maternal, child and family health service","GP",5
"Street Doctor (360 Street Doctor)","Perth","WA",6000,115.86768,-31.94723,"General practice service","GP",37
"Bega Valley Medical Practice","Bega","NSW",2550,149.846786499023,-36.6744766235352,"General practice service","GP",9
"Schofields Medical Practice","Schofields","NSW",2762,150.870422363281,-33.6963768005371,"General practice service","GP",4
"Nunkuwarrin Yunti - Wakefield Street","Adelaide","SA",5000,138.607711791992,-34.9278068542481,"Aboriginal and Torres Strait Islander health service","GP",38
"Logan Hospital","Meadowbrook","QLD",4131,153.139282226563,-27.6697235107422,"Nurse led clinic","GP",4
"Harbourtown Medical Centre","Arundel","QLD",4214,153.355133056641,-27.9237747192383,"General practice skin cancer service","GP",3
"Norwood Village Medical And Dental Centre","Norwood","SA",5067,138.637786865234,-34.9205436706543,"General practice service","GP",11
"Integral Health Armidale","Armidale","NSW",2350,151.661590576172,-30.5162544250488,"General practice service","GP",16
"Summit Medical Group","Brunswick","VIC",3056,144.963668823242,-37.7561111450195,"General practice service","GP",23
"The Children's Hospital At Westmead","Westmead","NSW",2145,150.991882324219,-33.8014907836914,"Maternal, child and family health service","GP",17
"Bch Drysdale Youth - Headspace","Drysdale","VIC",3222,144.555725097656,-38.1897315979004,"General practice service","GP",7
"Medacs","Lara","VIC",3212,144.41527324,-38.02441409,"General practice service","GP",7
"Wathaurong Aboriginal Co-Operative","North Geelong","VIC",3215,144.349395751953,-38.0998229980469,"General practice service","GP",2
"Maternal And Child Health Centre - Maryborough","Maryborough","VIC",3465,143.741677343917,-37.04697916908,"Maternal, child and family health service","GP",22
"My Medical & Dental Centre","Springfield Central","QLD",4300,152.902206420898,-27.6775150299072,"General practice service","GP",8
"Rudloc Road Medical And Dental Centre","Morley","WA",6062,115.900085449219,-31.8998622894287,"General practice service","GP",13
"Rathdowne Village Medical Centre","Carlton North","VIC",3054,144.971740722656,-37.7885932922363,"General practice service","GP",7
"Tasman Medical Practice","Nubeena","TAS",7184,147.743270874023,-43.0968437194824,"General practice service","GP",2
"Yamadi Lera Yumi Meta","Mackay","QLD",4740,149.182754516602,-21.1421661376953,"Aboriginal and Torres Strait Islander health service","GP",16
"Wickepin Health Centre","Wickepin","WA",6370,117.499664306641,-32.783447265625,"Nurse led clinic","GP",1
"Crown West Medical","Wollongong","NSW",2500,150.886566162109,-34.4251823425293,"General practice service","GP",27
"Gidgegannup Medical Centre","Gidgegannup","WA",6083,116.192115783691,-31.793924331665,"General practice skin cancer service","GP",2
"Maternal And Child Health Centre - Port Fairy","Port Fairy","VIC",3284,142.238037109375,-38.3883743286133,"Maternal, child and family health service","GP",4
"Cessnock District Health Service Palliative Care Service","Cessnock","NSW",2325,151.34895324707,-32.8282203674316,"Nurse led clinic","GP",16
"Mackay Community Health Centre - Walkerston Child Health Clinic","Walkerston","QLD",4751,149.062377929688,-21.166467666626,"Maternal, child and family health service","GP",3
"Errol Street Medical Centre","North Melbourne","VIC",3051,144.949264526367,-37.8035583496094,"General practice service","GP",10
"Child And Family Health Clinics - Dorrigo","Dorrigo","NSW",2453,152.71305966,-30.33997838,"Maternal, child and family health service","GP",5
"Hurstville Highpoint Medical Centre","Hurstville","NSW",2220,151.095703125,-33.9640922546387,"General practice service","GP",23
"Saint Mary Medical Centre","Gisborne","VIC",3437,144.589811,-37.488935,"General practice service","GP",8
"Maternal And Child Health Centre - Dookie","Dookie","VIC",3646,145.687210083008,-36.3270683288574,"Maternal, child and family health service","GP",1
"Myhealth - Hampton","Hampton","VIC",3188,145.003143310547,-37.9390640258789,"General practice service","GP",5
"Shp Gladstone","South Gladstone","QLD",4680,151.26505891,-23.85002947,"General practice service","GP",3
"Doctors On Darling","Balmain","NSW",2041,151.177597045898,-33.8571662902832,"General practice service","GP",10
"Lancelin Child Health Centre","Lancelin","WA",6044,115.32973805,-31.01352162,"Maternal, child and family health service","GP",3
"Your Doctor - Berwick","Berwick","VIC",3806,145.358520507813,-38.037841796875,"General practice service","GP",24
"Mount Perry Health Centre","Mount Perry","QLD",4671,151.646423339844,-25.1817226409912,"Nurse led clinic","GP",1
"Ballarto Medical Centre","Carrum Downs","VIC",3201,145.190444946289,-38.1163520812988,"General practice service","GP",14
"Nyngan Health Service","Nyngan","NSW",2825,147.202117919922,-31.5616073608398,"Maternal, child and family health service","GP",5
"Cancer Council Sa - Greenhill Lodge","Eastwood","SA",5063,138.61832339,-34.94093164,"Community cancer service","GP",23
"Gladstone Community Health Service","Gladstone","QLD",4680,151.248962402344,-23.8501586914063,"Aboriginal and Torres Strait Islander health service","GP",11
"Brighton Beach Medical Centre","Merriwa","WA",6030,115.708023071289,-31.6588344573975,"General practice service","GP",5
"Parkinson Medical Hub","Parkinson","QLD",4115,153.02806445,-27.62837592,"General practice skin cancer service","GP",2
"Rehman Clinic","Pialba","QLD",4655,152.845589,-25.284006,"General practice service","GP",16
"Dr Shikha Parmar - Laser Pain Therapy Australia","South Yarra","VIC",3141,144.99352631,-37.83964897,"General practice service","GP",17
"Westmed Medical Centre","Footscray","VIC",3011,144.894653,-37.79422,"General practice service","GP",31
"Invitation To Health","Wyoming","NSW",2250,151.34944152832,-33.4122428894043,"General practice service","GP",6
"Healthplus - Lugarno","Lugarno","NSW",2210,151.048400878906,-33.9750862121582,"General practice service","GP",1
"Joondalup Health Campus","Joondalup","WA",6027,115.77273474,-31.73817441,"General practice service","GP",14
"Tlc Primary Care - Armstrong Creek","Armstrong Creek","VIC",3217,144.335571289063,-38.236198425293,"General practice service","GP",3
"Springs Medical Daylesford","Daylesford","VIC",3460,144.145690917969,-37.3384666442871,"Nurse led clinic","GP",5
"Echuca Regional Health","Echuca","VIC",3564,144.74836730957,-36.1389694213867,"Community cancer service","GP",14
"Wunan Health","Kununurra","WA",6743,128.73811,-15.77979,"General practice service","GP",6
"Access Medical Group - Knox","Wantirna South","VIC",3152,145.243316650391,-37.8709449768066,"General practice service","GP",13
"Maternal And Child Health Centre - Hillside","Hillside","VIC",3037,144.739685058594,-37.6866569519043,"Maternal, child and family health service","GP",7
"Dr Leong Thian Lim","Balwyn North","VIC",3104,145.100281,-37.790051,"General practice service","GP",12
"Maternal And Child Health Centre - Rowville - Murrindal Drive","Rowville","VIC",3178,145.271713256836,-37.9100341796875,"Maternal, child and family health service","GP",18
"Springvale South Medical Centre","Springvale","VIC",3171,145.16441055,-37.93946681,"General practice service","GP",26
"Health One Manilla","Manilla","NSW",2346,150.732345581055,-30.7456111907959,"Maternal, child and family health service","GP",5
"Waikiki Gp Super Clinic","Waikiki","WA",6169,115.754027,-32.313987,"General practice service","GP",4
"Breastcare Mastectomy Product & Fitting","Burswood","WA",6100,115.89392585,-31.96847796,"Community cancer service","GP",2
"Howlong Medical Centre","Howlong","NSW",2643,146.62370300293,-35.9784622192383,"Maternal, child and family health service","GP",2
"Jordan River Health","Bridgewater","TAS",7030,147.246200561523,-42.7358703613281,"General practice service","GP",5
"Sunrise Health Barunga Clinic","Katherine","NT",852,132.864990234375,-14.5224046707153,"Aboriginal and Torres Strait Islander health service","GP",12
"The Family Doctor Cairns","Manoora","QLD",4870,145.74006652832,-16.9189796447754,"General practice service","GP",4
"Mooroolbark Specialist Centre","Mooroolbark","VIC",3138,145.317398071289,-37.7872276306152,"Community cancer service","GP",5
"Gatton Medical Centre","Gatton","QLD",4343,152.278869628906,-27.5572948455811,"General practice service","GP",10
"Patrick Street Clinic","Ulverstone","TAS",7315,146.171295166016,-41.1557197570801,"General practice service","GP",5
"Goonawarra Medical Centre","Sunbury","VIC",3429,144.74969762,-37.57974563,"General practice service","GP",19
"Gladstone Hospital - Antenatal Clinics","Gladstone Central","QLD",4680,151.246322631836,-23.8520565032959,"Maternal, child and family health service","GP",8
"Brighton Child Health Centre","Brighton","QLD",4017,153.06233215332,-27.2902221679688,"Maternal, child and family health service","GP",30
"Dajarra Clinic","Dajarra","QLD",4825,139.514511108398,-21.6944904327393,"Nurse practitioner led clinic","GP",3
"Maternal And Child Health Centre - Moonee Ponds","Moonee Ponds","VIC",3039,144.920928955078,-37.7676887512207,"Maternal, child and family health service","GP",16
"Ochre Medical Centre - Maleny","Maleny","QLD",4552,152.848007202148,-26.7613754272461,"General practice service","GP",8
"St Helen's Private Hospital","Hobart","TAS",7000,147.325637817383,-42.8867073059082,"Maternal, child and family health service","GP",19
"The Crane General Practice","Clifton Hill","VIC",3068,144.98673,-37.79075,"General practice service","GP",4
"Eastcoast Women's Centre","Nambour","QLD",4560,152.964385986328,-26.6260738372803,"General practice service","GP",12
"Karoonda And District Soldiers' Memorial Hospital","Karoonda","SA",5307,139.889373779297,-35.0937423706055,"Maternal, child and family health service","GP",3
"Coonalpyn Community Health Centre","Coonalpyn","SA",5265,139.859588623047,-35.6977310180664,"Nurse led clinic","GP",2
"Era Health Doctor Melbourne Cbd","Melbourne","VIC",3000,144.960021972656,-37.8148612976074,"General practice service","GP",57
"Warwick Community Child Health Service","Warwick","QLD",4370,152.033737182617,-28.2182216644287,"Maternal, child and family health service","GP",14
"Fmp Wollongong","Wollongong","NSW",2500,150.880564,-34.426364,"General practice service","GP",27
"Collins Place Medical Clinic","Melbourne","VIC",3000,144.971343994141,-37.8143463134766,"General practice service","GP",57
"Sorell Doctors Surgery","Sorell","TAS",7172,147.561645507813,-42.784538269043,"General practice service","GP",5
"Peel Health Campus","Greenfields","WA",6210,115.764343261719,-32.5330276489258,"Maternal, child and family health service","GP",9
"Montague Farm Medical Centre","Pooraka","SA",5095,138.621826171875,-34.8236923217773,"Maternal, child and family health service","GP",4
"Maternal And Child Health Centre - Warrnambool - Fairy Street","Warrnambool","VIC",3280,142.478775024414,-38.3826789855957,"Maternal, child and family health service","GP",24
"Jewells Medical Centre","Jewells","NSW",2280,151.684097290039,-33.0112762451172,"General practice service","GP",3
"Dubbo Health Service Ambulatory Procedures Clinic","Dubbo","NSW",2830,148.621246337891,-32.2391128540039,"Nurse led clinic","GP",32
"Skipton Medical Practice","Skipton","VIC",3361,143.367416381836,-37.6847190856934,"General practice service","GP",3
"Ochre Medical Centre Grafton","Grafton","NSW",2460,152.93908,-29.69523,"General practice service","GP",13
"Ramona Street Medical Centre","Quakers Hill","NSW",2763,150.887130737305,-33.7277641296387,"General practice service","GP",12
"Maternal And Child Health Centre - Koroit","Koroit","VIC",3282,142.371994018555,-38.2974662780762,"Maternal, child and family health service","GP",3
"Balance! Edmonton Family Practice","Edmonton","QLD",4869,145.727981567383,-17.0209712982178,"General practice service","GP",5
"St John General Practice - Cannington","Beckenham","WA",6107,115.94592,-32.02615,"General practice service","GP",7
"St Andrew's Toowoomba Medical Centre","Toowoomba","QLD",4350,151.934585571289,-27.540111541748,"General practice service","GP",6
"Foster Medical Centre","Foster","VIC",3960,146.206817626953,-38.6596870422363,"General practice service","GP",4
"Sunshine Marketplace Medical Centre","Sunshine","VIC",3020,144.831481933594,-37.7803764343262,"General practice service","GP",22
"Collins Street Surgery","Piccadilly","WA",6430,121.467933654785,-30.7402076721191,"General practice service","GP",2
"Plumpton Marketplace Medical Centre","Plumpton","NSW",2761,150.835235595703,-33.7467002868652,"General practice service","GP",2
"North Blackburn Square Clinic","Blackburn North","VIC",3130,145.153076171875,-37.8102149963379,"General practice service","GP",2
"Main Street Doctors","Pakenham","VIC",3810,145.478775024414,-38.0744857788086,"General practice service","GP",21
"Smithfield Community Health Centre","Smithfield","QLD",4878,145.695571899414,-16.8376426696777,"Maternal, child and family health service","GP",19
"Darnley Island Primary Health Care Centre","Erub Island","QLD",4875,143.762738695588,-9.59833276131614,"Maternal, child and family health service","GP",1
"Winchelsea Medical Clinic","Winchelsea","VIC",3241,143.987755,-38.242787,"General practice service","GP",4
"Bathurst Health Service - Occupational Therapy","Bathurst","NSW",2795,149.574508666992,-33.4097518920898,"Nurse led clinic","GP",18
"Ultra Health Care","Cheltenham","VIC",3192,145.052993774414,-37.9597549438477,"General practice service","GP",14
"Maternal & Child Health Centre - Echuca","Echuca","VIC",3564,144.748916625977,-36.1295509338379,"Maternal, child and family health service","GP",14
"Mount Barker South Medical Centre","Mount Barker","SA",5251,138.866638183594,-35.0802955627441,"General practice service","GP",19
"Isra Medical Services - Parramatta","Parramatta","NSW",2150,151.009414672852,-33.8153877258301,"General practice service","GP",19
"Bayside Family Medical And Musculoskeletal Practice","Glenelg","SA",5045,138.51969909668,-34.9773559570313,"General practice service","GP",11
"Bulimba Doctors","Balmoral","QLD",4171,153.063888549805,-27.4553318023682,"General practice service","GP",3
"Hamilton Medical Group","Hamilton","VIC",3300,142.029998779297,-37.7376403808594,"General practice service","GP",20
"Wembley Child Health Centre","Wembley","WA",6014,115.811004638672,-31.93581199646,"Maternal, child and family health service","GP",8
"Kubin Primary Health Care Centre","Moa Island","QLD",4875,142.218149,-10.234233,"General practice service","GP",3
"Maternal And Child Health Centre - Dunkeld","Dunkeld","VIC",3294,142.344848632813,-37.6507072448731,"Maternal, child and family health service","GP",2
"Inner North Medical Clinic","Brunswick East","VIC",3057,144.972106933594,-37.7703590393066,"General practice service","GP",8
"Dalby Community Health Centre","Dalby","QLD",4405,151.266510009766,-27.1803665161133,"Maternal, child and family health service","GP",9
"Gateway Health - Wangaratta","Wangaratta","VIC",3677,146.320022583008,-36.3530502319336,"General practice service","GP",19
"Brooke Street Medical Centre","Woodend","VIC",3442,144.529159545898,-37.3598785400391,"General practice service","GP",6
"Torquay Medical Health & Wellness Clinic","Torquay","VIC",3228,144.31753621,-38.31205143,"General practice service","GP",10
"Milyakburra (Bickerton Island) Health Centre","Milyakburra","NT",822,136.197860717773,-13.7774667739868,"Maternal, child and family health service","GP",1
"Illawarra Family Medical Centre","Wollongong","NSW",2500,150.885833740234,-34.4250030517578,"General practice service","GP",27
"Kilsyth Medical Centre","Kilsyth","VIC",3137,145.30978726,-37.80273226,"General practice service","GP",5
"Royal Prince Alfred Hospital - Maternal And Child Health Clinic","Camperdown","NSW",2050,151.181304931641,-33.8884010314941,"Maternal, child and family health service","GP",17
"Scarborough Beach Medical Centre","Scarborough","WA",6019,115.760696411133,-31.8947334289551,"General practice service","GP",9
"Woy Woy General Practice","Woy Woy","NSW",2256,151.324096679688,-33.4858741760254,"General practice service","GP",10
"Murray Valley Aboriginal Co-Operative Health Service","Robinvale","VIC",3549,142.77864074707,-34.579532623291,"Aboriginal and Torres Strait Islander health service","GP",6
"Maddington Village General Practice","Maddington","WA",6109,116.000213623047,-32.053768157959,"General practice service","GP",10
"Street Doctor (360 Street Doctor)","Perth","WA",6000,115.867002168273,-31.952957052445,"General practice service","GP",37
"Cuthbert Medical Centre","Broadmeadows","VIC",3047,144.922180175781,-37.683219909668,"General practice service","GP",16
"Magnus Medical","Glenroy","VIC",3046,144.93745981,-37.70708087,"General practice service","GP",14
"Aicra Indigenous Hacc","Berserker","QLD",4701,150.534469604492,-23.3726558685303,"Aboriginal and Torres Strait Islander health service","GP",6
"Rosemeadow Community Health Connect Care - Aboriginal","Rosemeadow","NSW",2560,150.799301147461,-34.0998916625977,"Aboriginal and Torres Strait Islander health service","GP",5
"Derbarl Yerrigan Health Service - Maddington","Maddington","WA",6109,115.97986,-32.05484,"Aboriginal and Torres Strait Islander health service","GP",10
"Queens Road Surgery","Mount Pleasant","WA",6153,115.848167419434,-32.0290565490723,"General practice service","GP",15
"North Sydney Skin Cancer Clinic","North Sydney","NSW",2060,151.205993652344,-33.8380012512207,"General practice skin cancer service","GP",10
"Watsonia Road Medical Centre","Watsonia","VIC",3087,145.0800311,-37.7117013,"General practice service","GP",9
"Inala Indigenous Health Centre","Inala","QLD",4077,152.971237182617,-27.5999526977539,"Aboriginal and Torres Strait Islander health service","GP",11
"St Mary's Medical Clinic","St Albans","VIC",3021,144.804412841797,-37.7444801330566,"General practice service","GP",27
"Gp Plus Health Care Centre - Elizabeth","Elizabeth","SA",5112,138.671463012695,-34.7171974182129,"General practice service","GP",8
"Pearsall Medical And Dental Centre","Pearsall","WA",6065,115.818687438965,-31.7808742523193,"General practice service","GP",2
"Clovercrest Family Practice","Modbury","SA",5092,138.673034667969,-34.8294143676758,"General practice service","GP",14
"Joyce Palmer Health Service (Palm Island)","Palm Island","QLD",4816,146.57798153,-18.73284329,"Maternal, child and family health service","GP",5
"Congress Social & Emotional Wellbeing - Sewb","Alice Springs","NT",870,133.883682250977,-23.7003517150879,"General practice service","GP",11
"Glendale Medical Centre","Glendale","NSW",2285,151.643371582031,-32.928150177002,"General practice service","GP",4
"Bendigo Ufs Pharmacies View Street","Bendigo","VIC",3550,144.27394133,-36.75562879,"Nurse led clinic","GP",28
"Maternal And Child Health Centre - Glenroy West","Glenroy","VIC",3046,144.921676635742,-37.7038650512695,"Maternal, child and family health service","GP",14
"Gilgandra Community Health Centre Aboriginal Health Service At Gulargambone","Gulargambone","NSW",2828,148.469528198242,-31.3298530578613,"Aboriginal and Torres Strait Islander health service","GP",3
"Umagico Primary Health Centre","Umagico","QLD",4876,142.350387573242,-10.8926839828491,"Maternal, child and family health service","GP",1
"Myclinic Bacchus Marsh","Bacchus Marsh","VIC",3340,144.43796,-37.674927,"General practice skin cancer service","GP",8
"Cornwall Street Medical Centre","Woolloongabba","QLD",4102,153.030432,-27.499785,"General practice service","GP",12
"Molong Healthone General Practice","Molong","NSW",2866,148.867416381836,-33.0912208557129,"Maternal, child and family health service","GP",3
"Mernda Village Medical Centre","Mernda","VIC",3754,145.090835571289,-37.59423828125,"Maternal, child and family health service","GP",9
"Nurture Family Allied Health Centre","Hyde Park","QLD",4812,146.800430297852,-19.2758102416992,"Maternal, child and family health service","GP",12
"Aim Health Melbourne Student Medical Centre","Melbourne","VIC",3000,144.965107,-37.811677,"General practice service","GP",57
"Wishart Village Family Practice","Wishart","QLD",4122,153.108078002929,-27.5483646392822,"General practice service","GP",3
"Epping Family Medical And Specialist Centre","Epping","VIC",3076,145.02421,-37.628,"General practice service","GP",36
"Flinders Clinic","Oaklands Park","SA",5046,138.54850769043,-35.0164489746094,"General practice skin cancer service","GP",7
"Burnett Medical Centre","Bundaberg Central","QLD",4670,152.34905378,-24.86782797,"General practice skin cancer service","GP",10
"Maternal And Child Health Centre - Truganina - Arndell Park","Truganina","VIC",3029,144.729614257813,-37.8623390197754,"Maternal, child and family health service","GP",6
"Broome Medical Clinic","Broome","WA",6725,122.237083435059,-17.959753036499,"General practice service","GP",12
"Cootamundra Health Service Chronic And Complex Care Service","Cootamundra","NSW",2590,148.013946533203,-34.6352806091309,"Nurse led clinic","GP",6
"Headspace Campbelltown","Campbelltown","NSW",2560,150.813705444336,-34.0668678283691,"General practice service","GP",35
"Child, Youth And Family Health Drop In Clinic","Toowoomba City","QLD",4350,151.95457171,-27.55586872,"Maternal, child and family health service","GP",13
"Lakes Boulevard Medical","South Morang","VIC",3752,145.08740234375,-37.6310081481934,"General practice service","GP",9
"Cohealth - Collingwood - Innerspace Drug Safety Services","Collingwood","VIC",3066,144.984954833984,-37.7988662719727,"General practice service","GP",12
"Waminda South Coast Women's Health (Clinic)","Nowra","NSW",2541,150.603012084961,-34.8779411315918,"General practice service","GP",18
"Goodna Community - Lactation Clinic","Goodna","QLD",4300,152.892623901367,-27.6160411834717,"Maternal, child and family health service","GP",7
"Ranges Medical","New Gisborne","VIC",3438,144.595642089844,-37.4662818908691,"General practice service","GP",1
"Headspace Bentleigh","Bentleigh","VIC",3204,145.034881591797,-37.9326019287109,"General practice service","GP",13
"Casino Medical Centre","Casino","NSW",2470,153.047348022461,-28.8623600006104,"General practice service","GP",11
"Maroochydore Community Health Centre","Maroochydore","QLD",4558,153.086029,-26.666129,"Maternal, child and family health service","GP",20
"Leongatha Healthcare - 64 Koonwarra Road","Leongatha","VIC",3953,145.951400756836,-38.4875717163086,"General practice service","GP",6
"Fitzroy Crossing Hospital","Fitzroy Crossing","WA",6765,125.562835540281,-18.1910636380821,"Aboriginal and Torres Strait Islander health service","GP",7
"Dunsborough Child Health Centre","Busselton","WA",6280,115.104888916016,-33.621208190918,"Maternal, child and family health service","GP",10
"Kununurra Child Health Centre","Kununurra","WA",6743,128.738815307617,-15.7746715545654,"Maternal, child and family health service","GP",6
"Royal Prince Alfred Hospital-Ante-Natal Clinic","Camperdown","NSW",2050,151.181259155273,-33.888355255127,"Nurse practitioner led clinic","GP",17
"Ngukurr Health Centre","Katherine","NT",852,134.732086181641,-14.7338542938232,"Aboriginal and Torres Strait Islander health service","GP",12
"Gulgong Medical Centre","Gulgong","NSW",2852,149.532974243164,-32.3636474609375,"General practice service","GP",4
"Adelaide Medical Solutions","Woodville South","SA",5011,138.535797119141,-34.8814811706543,"General practice service","GP",6
"Child And Family Health Clinics - Boambee East","Boambee East","NSW",2452,153.073883056641,-30.3442764282227,"Maternal, child and family health service","GP",2
"Oberon Community Health Centre Diversional Therapy Service","Oberon","NSW",2787,149.853118896484,-33.7054100036621,"Nurse led clinic","GP",6
"1health Medical Centre","Carlingford","NSW",2118,151.052383422852,-33.7761917114258,"General practice service","GP",15
"The Boulevard Family Practice","Thomastown","VIC",3074,145.015991210938,-37.6783981323242,"General practice service","GP",9
"Royal Prince Alfred Hospital-Birth Centre","Camperdown","NSW",2050,151.181259155273,-33.888355255127,"Nurse practitioner led clinic","GP",17
"Dandenong West Medical Centre","Dandenong","VIC",3175,145.202392578125,-37.9829216003418,"General practice service","GP",35
"Sun Family Practice - Drewvale","Drewvale","QLD",4116,153.046127319336,-27.6395111083984,"General practice service","GP",2
"Maldon Hospital","Maldon","VIC",3463,144.063598632813,-36.9909706115723,"Nurse led clinic","GP",4
"The Centre For Health And Wellbeing","Norwood","SA",5067,138.626831054688,-34.9219055175781,"General practice service","GP",11
"Morven Community Clinic - Dressing Clinic","Morven","QLD",4468,147.138442993164,-26.4074192047119,"Nurse led clinic","GP",2
"Mercy Care Young Health Service Aged Care Diversional Therapy Service","Young","NSW",2594,148.288803100586,-34.3211975097656,"Nurse led clinic","GP",8
"Doctors @ Morningside","Morningside","QLD",4170,153.069702148438,-27.469518661499,"General practice service","GP",5
"Mapoon Primary Health Care Centre","Mapoon","QLD",4874,141.900419544612,-12.0166572570412,"Nurse led clinic","GP",3
"Mediscreen Clinic","Hawthorn East","VIC",3123,145.046142578125,-37.8450393676758,"General practice skin cancer service","GP",6
"Yulu-Burri-Ba Aboriginal Corporation (North Stradbroke Island)","Dunwich","QLD",4183,153.406524658203,-27.4913520812988,"Aboriginal and Torres Strait Islander health service","GP",2
"Acland Street Medical Centre","St Kilda","VIC",3182,144.98007282,-37.86937979,"General practice service","GP",15
"Kimba District Community, Disability And Aged Services","Kimba","SA",5641,136.415863037109,-33.1435317993164,"Nurse led clinic","GP",3
"Hunter River Medical Centre","East Maitland","NSW",2323,151.586563110352,-32.7500686645508,"General practice service","GP",8
"Ochre Medical Centre Lakeview","Greenway","ACT",2900,149.068649291992,-35.4149932861328,"General practice service","GP",10
"Maternal And Child Health Centre - Winchelsea","Winchelsea","VIC",3241,143.98918244,-38.24276324,"Maternal, child and family health service","GP",4
"Ti-Tree Family Doctors","Mount Eliza","VIC",3930,145.088912963867,-38.185489654541,"General practice service","GP",9
"Walwa Bush Nursing Centre","Walwa","VIC",3709,147.732986450195,-35.9643058776856,"Nurse led clinic","GP",3
"Appletree Hill Medical Centre","Glen Waverley","VIC",3150,145.179092407227,-37.8760528564453,"General practice service","GP",27
"Glover Street Surgery","Belmont","NSW",2280,151.661651611328,-33.0349426269531,"General practice service","GP",22
"Corangamite Shire","Camperdown","VIC",3260,143.146072387695,-38.2325820922852,"Maternal, child and family health service","GP",17
"Ochre Medical Centre Calwell","Calwell","ACT",2905,149.11409628,-35.43462713,"General practice service","GP",2
"Ipc Health - Wyndham Vale","Wyndham Vale","VIC",3024,144.614959716797,-37.8703193664551,"General practice service","GP",4
"Campbell Street Family Medical Practice","Blacktown","NSW",2148,150.909851074219,-33.7711334228516,"General practice service","GP",34
"Penrith After Hours Doctors","Penrith","NSW",2750,150.691665649414,-33.7567100524902,"General practice service","GP",27
"Maternal And Child Health Centre - Anglesea","Anglesea","VIC",3230,144.18509384,-38.4094572,"Maternal, child and family health service","GP",4
"Recreation Medical Centre","Armadale","VIC",3143,145.027862548828,-37.8566665649414,"General practice service","GP",18
"Neutral Bay Medical Centre","Neutral Bay","NSW",2089,151.218368530273,-33.829517364502,"General practice service","GP",11
"Eastbound Medical Clinic","Bentleigh East","VIC",3165,145.058603,-37.920009,"General practice service","GP",13
"Annangrove Medical Centre","Annangrove","NSW",2156,150.956253,-33.671066,"General practice service","GP",2
"Galway Medical Centre","Marleston","SA",5033,138.554000854492,-34.9488296508789,"General practice service","GP",2
"Fadden Medical Centre","Fadden","ACT",2904,149.118499755859,-35.4049263000488,"General practice service","GP",1
"Laura And District Hospital","Laura","SA",5480,138.299407958984,-33.1754112243652,"Maternal, child and family health service","GP",6
"Lotus Medical Centre","Brunswick","VIC",3056,144.961471557617,-37.7731285095215,"General practice service","GP",23
"Strathpine 7 Day Medical Centre","Strathpine","QLD",4500,152.98921169,-27.30113892,"General practice service","GP",14
"Hepburn Community Care","Daylesford","VIC",3460,144.141891479492,-37.3429336547852,"Maternal, child and family health service","GP",5
"Peppimenarti Health Centre","Peppimenarti","NT",822,130.080825805664,-14.1521654129028,"Aboriginal and Torres Strait Islander health service","GP",1
"Wallaroo Hospital","Wallaroo","SA",5556,137.636047363281,-33.9272880554199,"Aboriginal and Torres Strait Islander health service","GP",5
"Health & Wellbeing North Ward","North Ward","QLD",4810,146.811828613281,-19.2522563934326,"General practice service","GP",3
"Gawler Medical Clinic","Gawler","SA",5118,138.748992919922,-34.6048011779785,"General practice service","GP",5
"Dr John Vissaritis","South Melbourne","VIC",3205,144.96354675293,-37.8343925476074,"General practice service","GP",12
"Bay Doctors And Skin Cancer Clinic","Salamander Bay","NSW",2317,152.076699,-32.721839,"General practice service","GP",9
"Wellness On Wellington","Rowville","VIC",3178,145.250549316406,-37.9265937805176,"General practice service","GP",18
"Logan Central Child Health","Logan Central","QLD",4114,153.108047485352,-27.6403121948242,"Maternal, child and family health service","GP",20
"Southern Clinic","Como","WA",6152,115.85616541,-31.99333134,"General practice service","GP",8
"Hampton Medical Centre","South Fremantle","WA",6162,115.758605957031,-32.0743408203125,"General practice service","GP",2
"Gps On Vermont Medical Centre","Wodonga","VIC",3690,146.877839,-36.1331791,"General practice service","GP",21
"Myhealth West Moreton Clinic","Ipswich","QLD",4305,152.758217,-27.6134705,"General practice service","GP",19
"Whyalla Hospital And Health Services","Whyalla","SA",5600,137.578216552734,-33.0331840515137,"Community cancer service","GP",5
"Kogarah Family Practice","Kogarah","NSW",2217,151.135803222656,-33.9650726318359,"General practice service","GP",20
"Eleanor Clinic","Footscray","VIC",3011,144.885482788086,-37.7914009094238,"General practice service","GP",31
"Malvern Medical Centre - Unley","Unley","SA",5061,138.608062744141,-34.9528465270996,"General practice service","GP",6
"Carnamah Child Health Centre","Three Springs","WA",6519,115.761947631836,-29.5365409851074,"Maternal, child and family health service","GP",3
"Mount Isa Hospital - Child And Family Health Services","Townview","QLD",4825,139.50172739,-20.73558578,"Maternal, child and family health service","GP",2
"Burnie General Practice","Burnie","TAS",7320,145.905578613281,-41.0515975952148,"General practice service","GP",8
"Riverwood Child And Family Health","Riverwood","NSW",2210,151.048965454102,-33.9538803100586,"Maternal, child and family health service","GP",14
"Wellness Medicine","Clifton Hill","VIC",3068,144.987014770508,-37.7907333374023,"General practice service","GP",4
"Port Skin Clinic Pty Ltd","Port Macquarie","NSW",2444,152.909576416016,-31.4398288726807,"General practice skin cancer service","GP",31
"Our Medical Cranbourne","Cranbourne West","VIC",3977,145.246069,-38.079278,"General practice service","GP",8
"Watarrka Health Centre","Petermann","NT",872,131.510374,-24.243388,"General practice service","GP",1
"Supernova Medical Centre","Tarneit","VIC",3029,144.703216552734,-37.8490982055664,"General practice service","GP",15
"Lightning Ridge Multi Purpose Service Community Health Centre Child And Family Health Service At Goo","Goodooga","NSW",2838,147.455337524414,-29.1101207733154,"Maternal, child and family health service","GP",2
"Darling Downs South West Qld Diabetes Centre","Toowoomba City","QLD",4350,151.95265543,-27.56235925,"Aboriginal and Torres Strait Islander health service","GP",13
"The University Of Melbourne - Health Service","Carlton","VIC",3053,144.965515136719,-37.8016967773438,"Aboriginal and Torres Strait Islander health service","GP",12
"Asquith Doctors","Asquith","NSW",2077,151.107162475586,-33.688850402832,"General practice service","GP",4
"Westcare Medical Centre Thornlie","Thornlie","WA",6108,115.95247267,-32.04554794,"General practice service","GP",8
"Oakey Hospital - Maternal And Child Health Services","Oakey","QLD",4401,151.72053527832,-27.4252643585205,"Maternal, child and family health service","GP",6
"Woodford Child Health","Woodford","QLD",4514,152.785491943359,-26.9628753662109,"Maternal, child and family health service","GP",5
"Hay Medical Centre","Hay","NSW",2711,144.851608276367,-34.5003547668457,"General practice service","GP",3
"Toorak Medical Centre","Toorak","VIC",3142,145.00844652,-37.84133861,"General practice service","GP",8
"Hill Street Health Hub","Roseville","NSW",2069,151.177047729492,-33.7834510803223,"General practice service","GP",4
"Eaton Central 7 Day Family Practice","Eatons Hill","QLD",4037,152.959609985352,-27.3375129699707,"General practice service","GP",2
"Leeton Community Health Centre","Leeton","NSW",2705,146.409286499023,-34.5456924438477,"Maternal, child and family health service","GP",8
"Hepburn Community Care","Creswick","VIC",3363,144.142166137695,-37.3429718017578,"Maternal, child and family health service","GP",5
"Banyo Clinic","Banyo","QLD",4014,153.076522827148,-27.3745765686035,"General practice service","GP",5
"Yarrawarrah Medical Practice","Yarrawarrah","NSW",2233,151.027969360352,-34.0582618713379,"General practice service","GP",2
"Forest Mall Medical Centre","Hurstville","NSW",2220,151.105087280273,-33.9654693603516,"Maternal, child and family health service","GP",23
"Maternal Child & Family Health Centre - Yarragon","Yarragon","VIC",3823,146.065002441406,-38.2051048278809,"Maternal, child and family health service","GP",4
"Haan Health Medical Centre - Broadbeach","Broadbeach","QLD",4218,153.43253521,-28.02870864,"General practice service","GP",8
"Moonah Health Centre","Moonah","TAS",7009,147.297336,-42.850444,"General practice service","GP",5
"Chester Hill Family Medical Practice","Chester Hill","NSW",2162,151.002899169922,-33.8831520080566,"General practice service","GP",9
"Link-Up (Qld) Aboriginal Corporation","Woolloongabba","QLD",4102,153.032928466797,-27.4866390228272,"Aboriginal and Torres Strait Islander health service","GP",12
"Newstead Medical","Newstead","TAS",7250,147.161087036133,-41.4410133361816,"General practice service","GP",8
"Brightside Medical","Williamstown","VIC",3016,144.897857666016,-37.8564376831055,"General practice service","GP",8
"Awabakal Multifunctional Aboriginal Children's Services (Macs)","Wickham","NSW",2293,151.759674072266,-32.9220924377441,"Aboriginal and Torres Strait Islander health service","GP",3
"Wakefield Gardens Surgery","Ainslie","ACT",2602,149.145706,-35.261272,"Aboriginal and Torres Strait Islander health service","GP",2
"Medcentral Knox - Medical Centre","Wantirna South","VIC",3152,145.241348266602,-37.8688812255859,"General practice service","GP",13
"Browns Plains Child Health","Hillcrest","QLD",4118,153.028182983398,-27.6746196746826,"Maternal, child and family health service","GP",10
"Hawthorn Medical","Hawthorn","VIC",3122,145.026626586914,-37.8221015930176,"General practice service","GP",22
"Nurture Family Health & Dental Centre","Hyde Park","QLD",4812,146.800430297852,-19.2758102416992,"General practice service","GP",12
"Bourke Multi Purpose Service Primary And Community Health Nursing Service","Bourke","NSW",2840,145.948059082031,-30.0927314758301,"Nurse led clinic","GP",5
"Eastlakes Medical Centre","Swansea","NSW",2281,151.638229370117,-33.0886306762695,"General practice service","GP",9
"Travellers Medical Service","Brisbane City","QLD",4000,153.024795532227,-27.4691925048828,"General practice service","GP",28
"The Toorak Clinic","Toorak","VIC",3142,145.00553894043,-37.8480834960938,"General practice service","GP",8
"Maternal And Child Health Centre - Craigieburn - Grand Boulevard","Craigieburn","VIC",3064,144.932678222656,-37.5829925537109,"Maternal, child and family health service","GP",30
"Aboriginal And Torres Strait Islander Legal Service Qld","Brisbane City","QLD",4000,153.018783569336,-27.4685344696045,"Aboriginal and Torres Strait Islander health service","GP",28
"Pasadena Medical Pty Ltd","Pasadena","SA",5042,138.59042912,-35.00128924,"General practice service","GP",2
"Gap Road Clinic","The Gap","NT",870,133.876983642578,-23.7112350463867,"Aboriginal and Torres Strait Islander health service","GP",8
"Laurel Clinical","Parkwood","QLD",4214,153.37678855899,-27.9499395096819,"General practice service","GP",8
"Kimba District Community, Disability And Aged Services","Kimba","SA",5641,136.415863037109,-33.1435317993164,"Maternal, child and family health service","GP",3
"Medical One - Waurn Ponds","Waurn Ponds","VIC",3216,144.310241699219,-38.2016258239746,"General practice service","GP",4
"Desa Consulting","Narre Warren","VIC",3805,145.306823,-38.039048,"Nurse practitioner led clinic","GP",18
"Yorke Island Primary Health Care Centre","Yorke Island","QLD",4875,143.415059,-9.752018,"Aboriginal and Torres Strait Islander health service","GP",1
"Myhealth Foxwell Road","Coomera","QLD",4209,153.336674,-27.85198,"General practice service","GP",13
"Doctors Of Ivanhoe","Ivanhoe","VIC",3079,145.04177234,-37.76866669,"General practice service","GP",15
"Beaufort And Skipton Health Service - Beaufort Campus","Beaufort","VIC",3373,143.382446289063,-37.4308586120606,"Nurse led clinic","GP",6
"Maternal And Child Health Centre - Manangatang","Manangatang","VIC",3546,142.882827758789,-35.0464363098145,"Maternal, child and family health service","GP",3
"Martins Road Family Medical Practice","Parafield Gardens","SA",5107,138.60803849,-34.7802154,"General practice service","GP",6
"Paterson Medical Practice","Paterson","NSW",2421,151.619003295898,-32.5987968444824,"General practice service","GP",2
"Triple 333 Medical Centre","Merrylands","NSW",2160,150.982192993164,-33.8347206115723,"General practice service","GP",22
"The Excel Medical Centre - Chester Hill","Chester Hill","NSW",2162,151.001678466797,-33.8829765319824,"General practice service","GP",9
"Ochre Medical Centre Alfredton","Alfredton","VIC",3350,143.815933227539,-37.5587577819824,"General practice service","GP",6
"Balmain Early Childhood Centre","Rozelle","NSW",2039,151.17219543457,-33.859676361084,"Maternal, child and family health service","GP",7
"Tyabb Health","Tyabb","VIC",3913,145.188903808594,-38.2609443664551,"General practice service","GP",2
"Willetton Child Health Centre","Willetton","WA",6155,115.878677368164,-32.0558624267578,"Maternal, child and family health service","GP",14
"Bonalbo Multipurpose Service","Bonalbo","NSW",2469,152.625717163086,-28.736629486084,"Nurse practitioner led clinic","GP",4
"Uc Medical & Counselling Centre","Bruce","ACT",2617,149.084671020508,-35.2379913330078,"General practice service","GP",9
"Rockingham Gp","Rockingham","WA",6168,115.749481201172,-32.2870864868164,"General practice service","GP",15
"Equilibrium Healthcare","Helensburgh","NSW",2508,150.981994628906,-34.1935005187988,"General practice service","GP",3
"Seville Drive Medical Centre","Seville Grove","WA",6112,116.000305175781,-32.1301383972168,"General practice service","GP",3
"Barham Health Service Home And Community Care Service (Hacc)","Barham","NSW",2732,144.133102416992,-35.6240386962891,"Nurse led clinic","GP",4
"Coconut Island Health Centre","Coconut Island","QLD",4875,143.066617628723,-10.0498437375091,"Aboriginal and Torres Strait Islander health service","GP",2
"Strive Health & Physiotherapy","Kirwan","QLD",4817,146.730606079102,-19.3161754608154,"General practice service","GP",7
"Noble Medical Clinic","Noble Park","VIC",3174,145.17211794,-37.96750144,"General practice service","GP",15
"Centre Health Medical Centre - Barrack Heights","Barrack Heights","NSW",2528,150.847702026367,-34.5580520629883,"General practice service","GP",2
"Australian Indigenous Healthinfonet","Mount Lawley","WA",6050,115.8690055,-31.9190849,"Aboriginal and Torres Strait Islander health service","GP",10
"Danila Dilba - Palmerston Clinic","Palmerston City","NT",830,130.98664128,-12.48200253,"Aboriginal and Torres Strait Islander health service","GP",4
"Panania Child And Family Health Clinic","Panania","NSW",2213,150.998321533203,-33.9551315307617,"Maternal, child and family health service","GP",8
"The Neighbourhood Clinic","Fitzroy North","VIC",3068,144.986358642578,-37.7801017761231,"General practice service","GP",11
"Heywood Rural Health","Heywood","VIC",3304,141.625045776367,-38.1379165649414,"Nurse led clinic","GP",4
"Morley Child Health Centre","Morley","WA",6062,115.895248413086,-31.8924465179443,"Maternal, child and family health service","GP",13
"Hurstville City Medical Centre","Hurstville","NSW",2220,151.104354858398,-33.9679107666016,"General practice service","GP",23
"Corfield Doctors Surgery","Gosnells","WA",6110,115.999359130859,-32.0893173217773,"General practice service","GP",12
"Ballarat Medical Centre","Ballarat Central","VIC",3350,143.84681373,-37.56177758,"General practice service","GP",23
"Standish Street Surgery","Myrtleford","VIC",3737,146.726485,-36.557714,"General practice service","GP",7
"Kununurra Community Health Service","Kununurra","WA",6743,128.738754272461,-15.7741413116455,"Aboriginal and Torres Strait Islander health service","GP",6
"Hawthorn East Medical & Aesthetic Clinic (Hemac)","Hawthorn East","VIC",3123,145.046356201172,-37.8236999511719,"Maternal, child and family health service","GP",6
"Lorne Community House","Lorne","VIC",3232,143.973358154297,-38.5367698669434,"Maternal, child and family health service","GP",4
"The Ponds Family Medical Practice","The Ponds","NSW",2769,150.912872314453,-33.7010612487793,"General practice service","GP",3
"Gp@calvary Clinic","Bruce","ACT",2617,149.0892995,-35.2532789,"General practice service","GP",9
"Eyra Medical And Skin Clinic","Moree","NSW",2400,149.836227416992,-29.4626979827881,"General practice skin cancer service","GP",8
"Pika Wiya Health Service","Port Augusta","SA",5700,137.777038574219,-32.4944190979004,"Maternal, child and family health service","GP",11
"Piccadilly Surgery","Piccadilly","SA",5151,138.725692749023,-34.9826049804688,"General practice service","GP",2
"Bedford Medical Clinic","Clarence Gardens","SA",5039,138.5742165,-34.97550826,"General practice skin cancer service","GP",2
"Gp Surgery","Campbelltown","SA",5074,138.65887371,-34.88633992,"General practice service","GP",35
"Burpengary Child Health","Burpengary","QLD",4505,152.938283513491,-27.1589992066361,"Maternal, child and family health service","GP",8
"Waterloo Medical Centre","Alexandria","NSW",2015,151.197998046875,-33.8965644836426,"General practice service","GP",6
"Seymour Health","Seymour","VIC",3660,145.138946533203,-37.0176086425781,"Nurse practitioner led clinic","GP",5
"Waikerie Health Service","Waikerie","SA",5330,139.985458374023,-34.1823539733887,"Maternal, child and family health service","GP",5
"Malanda Primary Health Clinic","Malanda","QLD",4885,145.593856811523,-17.353832244873,"Maternal, child and family health service","GP",4
"Good Health Greenhills","East Maitland","NSW",2323,151.59423828125,-32.7619209289551,"General practice service","GP",8
"Tenterfield Hospital","Tenterfield","NSW",2372,152.013534545898,-29.0445613861084,"Nurse led clinic","GP",6
"Golden Cross Medical  Centre","Prospect","NSW",2148,150.905353,-33.795402,"General practice service","GP",14
"Mona Vale Doctors","Mona Vale","NSW",2103,151.302886962891,-33.6758766174316,"General practice service","GP",14
"Darlington Medical Centre Pty Ltd","Darlington","SA",5047,138.557309,-35.029695,"General practice service","GP",4
"St Pauls Primary Health Care Centre","Moa Island","QLD",4875,142.254974365234,-10.1705627441406,"Nurse led clinic","GP",3
"Smithfield Medical And Dental Centre","Smithfield","NSW",2164,150.94017541,-33.85324383,"General practice service","GP",19
"Dubbo Hospital Specialist Palliative Care Service","Dubbo","NSW",2830,148.621246337891,-32.2391128540039,"Nurse led clinic","GP",32
"Lobethal Medical Centre","Lobethal","SA",5241,138.876145,-34.902467,"General practice service","GP",1
"Mawarnkarra Health Service","Roebourne","WA",6718,117.144248962402,-20.7697887420654,"General practice service","GP",3
"The Health Care Centre - Crookwell","Crookwell","NSW",2583,149.467895507813,-34.464958190918,"General practice service","GP",7
"Stonewall Medical Centre","Windsor","QLD",4030,153.027954101563,-27.4379272460938,"General practice service","GP",17
"Moggill Road Family Practice","Chapel Hill","QLD",4069,152.96070359,-27.50576248,"General practice skin cancer service","GP",2
"Access Health And Community - Richmond","Richmond","VIC",3121,144.99569234,-37.81931379,"General practice service","GP",37
"Advance Medical Practice Pitt Town","Pitt Town","NSW",2756,150.859542,-33.586319,"General practice skin cancer service","GP",3
"Forster Tuncurry Medical Centre","Forster","NSW",2428,152.513916015625,-32.1893005371094,"General practice service","GP",10
"Gippsland Lakes Complete Health - Bruthen","Bruthen","VIC",3885,147.832138,-37.707264,"General practice service","GP",1
"Maternal And Child Health Centre - Dimboola","Dimboola","VIC",3414,142.03207773,-36.45429282,"Maternal, child and family health service","GP",4
"Whittlesea City Council","South Morang","VIC",3752,145.067184448242,-37.6447143554688,"Maternal, child and family health service","GP",9
"Glenferrie Road Medical Centre","Malvern","VIC",3144,145.029861450195,-37.8543357849121,"General practice service","GP",15
"Myhealth Brunswick","Brunswick","VIC",3056,144.971939086914,-37.7566642761231,"General practice service","GP",23
"North And West Remote Health (Longreach)","Longreach","QLD",4730,144.248565673828,-23.4407405853272,"Aboriginal and Torres Strait Islander health service","GP",6
"Nest Medical","Mandurah","WA",6210,115.72184753418,-32.5311012268066,"General practice service","GP",18
"High Street Medical And Dental Centre Preston","Preston","VIC",3072,145.005111694336,-37.7336578369141,"General practice service","GP",21
"West Wimmera Health Service - Nhill Campus","Nhill","VIC",3418,141.656036376953,-36.3333435058594,"Nurse led clinic","GP",5
"Wurli Wurlinjang Health Service","Katherine","NT",850,132.264907836914,-14.460789680481,"Maternal, child and family health service","GP",12
"Mayfair Medical Centre","Manly West","QLD",4179,153.155456542968,-27.4742832183837,"General practice service","GP",4
"Nyngan Multi Purpose Service Community Health Service","Nyngan","NSW",2825,147.201965332031,-31.5619277954102,"Nurse led clinic","GP",5
"Swan Hill District Health","Swan Hill","VIC",3585,143.555221557617,-35.341667175293,"Community cancer service","GP",6
"Hervey Bay Hospital","Pialba","QLD",4655,152.821004,-25.29832221,"Maternal, child and family health service","GP",16
"Our Medical Home North Lakes","North Lakes","QLD",4509,153.015038,-27.239088,"General practice service","GP",15
"Central Highlands Rural Health - Kyneton Health","Kyneton","VIC",3444,144.469970703125,-37.254264831543,"Nurse led clinic","GP",11
"Gunning District Community & Health Service","Gunning","NSW",2581,149.266250610352,-34.781608581543,"Maternal, child and family health service","GP",2
"Moonee Valley City Council","Flemington","VIC",3031,144.933837890625,-37.7883148193359,"Maternal, child and family health service","GP",9
"Roxby Downs Health Service","Roxby Downs","SA",5725,136.894631859616,-30.5625242180101,"Maternal, child and family health service","GP",6
"St Clair Community Health Centre","St Clair","NSW",2759,150.789199829102,-33.7956275939941,"Maternal, child and family health service","GP",8
"Moa St Paul's Island Health Centre - Torres Strait And Northern Peninsula Ahs Outer Island","Moa Island","QLD",4875,142.254974365234,-10.1705627441406,"Aboriginal and Torres Strait Islander health service","GP",3
"City Of Greater Geelong - Geelong","Geelong","VIC",3220,144.357162475586,-38.1469383239746,"Maternal, child and family health service","GP",24
"Mannum District Hospital","Mannum","SA",5238,139.308242797852,-34.9172172546387,"Maternal, child and family health service","GP",5
"Family Care Medical Centre","Mount Waverley","VIC",3149,145.109481811523,-37.881031036377,"General practice service","GP",18
"Canteen Creek Health Centre","Canteen Creek","NT",872,135.587646484375,-20.6401615142822,"Nurse led clinic","GP",1
"Western Family Practice","Braybrook","VIC",3019,144.857467651367,-37.7806205749512,"General practice service","GP",9
"Derby Child Health Centre","Derby","WA",6728,123.649040222168,-17.3179054260254,"Maternal, child and family health service","GP",7
"Calamvale Medical Centre","Calamvale","QLD",4116,153.048767089844,-27.62428855896,"General practice service","GP",10
"Woolloongabba Medical Clinic","Woolloongabba","QLD",4102,153.028137207031,-27.4880409240723,"General practice service","GP",12
"Country Health Connect - Riverland Community Health Service","Berri","SA",5343,140.601837158203,-34.2775955200195,"Aboriginal and Torres Strait Islander health service","GP",7
"Aware Women's Health","North Adelaide","SA",5006,138.603149,-34.909695,"General practice service","GP",9
"Wantirna Mall Clinic","Wantirna","VIC",3152,145.231185913086,-37.8481674194336,"General practice service","GP",9
"Gladstone Central Medical Centre","Gladstone","QLD",4680,151.24885559082,-23.8550186157227,"General practice service","GP",11
"Mowbray Medical","Mowbray","TAS",7248,147.132354736328,-41.4043197631836,"General practice service","GP",4
"Liverpool Community Health Aboriginal Connecting Care Program","Miller","NSW",2168,150.884002685547,-33.9202651977539,"Aboriginal and Torres Strait Islander health service","GP",6
"Eastgardens Early Childhood Health Clinic","Eastgardens","NSW",2036,151.22471057,-33.94386838,"Maternal, child and family health service","GP",7
"Condobolin Aboriginal Health Service","Condobolin","NSW",2877,147.147552490234,-33.0881576538086,"Aboriginal and Torres Strait Islander health service","GP",4
"Swifts Creek Maternal & Child Health Centres","Swifts Creek","VIC",3896,147.723236083984,-37.2621994018555,"Maternal, child and family health service","GP",2
"New Street Medical Centre","Brighton","VIC",3186,144.993469238281,-37.9006385803223,"General practice service","GP",30
"Cooleman Court Medical Centre","Weston Creek","ACT",2611,149.05243946952,-35.3408230610794,"General practice service","GP",1
"Esk Hospital - Child Health","Esk","QLD",4312,152.418167114258,-27.240348815918,"Maternal, child and family health service","GP",5
"Bugalwena General Practice","Tweed Heads South","NSW",2486,153.544143676758,-28.1978797912598,"Aboriginal and Torres Strait Islander health service","GP",7
"Healesville Hospital Gp Clinic","Healesville","VIC",3777,145.528991699219,-37.6467208862305,"General practice service","GP",7
"Childers Doctors Surgery","Childers","QLD",4660,152.279830932617,-25.2370491027832,"Maternal, child and family health service","GP",5
"George Town Medical Centre","George Town","TAS",7253,146.821136474609,-41.1034889221191,"General practice service","GP",4
"Cherbourg Hospital","Cherbourg","QLD",4605,151.956481933594,-26.2904720306397,"Maternal, child and family health service","GP",7
"Tunstall Square Family Medical Centre","Donvale","VIC",3111,145.173110961914,-37.7908248901367,"General practice service","GP",4
"Pangula Mannamurna Aboriginal Corporation","Mount Gambier","SA",5290,140.768081665039,-37.8248329162598,"Aboriginal and Torres Strait Islander health service","GP",12
"Myhealth Helensvale","Helensvale","QLD",4212,153.335708618164,-27.9268283843994,"General practice service","GP",12
"Kingsdene Medical Practice","Carlingford","NSW",2118,151.028747558594,-33.7841377258301,"General practice service","GP",15
"Hobsons Bay City Council","Altona","VIC",3018,144.8291015625,-37.8631629943848,"Maternal, child and family health service","GP",7
"Booleroo Centre District Hospital","Booleroo Centre","SA",5482,138.351333618164,-32.8775749206543,"Nurse led clinic","GP",4
"Narregate Medical & Dental Centre","Narre Warren","VIC",3805,145.313110351563,-38.0223808288574,"General practice service","GP",18
"Healthsmart Pharmacy Vccc","Melbourne","VIC",3000,144.956481933594,-37.7997741699219,"Nurse led clinic","GP",57
"Salisbury Medical Clinic","Salisbury","SA",5108,138.64387512207,-34.7624740600586,"General practice service","GP",11
"Warrawong Accident And Medical Centre","Warrawong","NSW",2502,150.889603,-34.486355,"General practice service","GP",11
"The Vasectomist: Springfield","Springfield Central","QLD",4300,152.90780821,-27.68650468,"General practice service","GP",8
"Black Swan Health Ltd - Osborne Park","Osborne Park","WA",6017,115.827774047852,-31.901517868042,"Nurse led clinic","GP",8
"Borroloola Community Health Centre","Borroloola","NT",854,136.305328369141,-16.054666519165,"General practice service","GP",1
"Floreat Surgery","Morphett Vale","SA",5162,138.523635864258,-35.1198616027832,"General practice service","GP",14
"Homeworld Helensvale Medical Centre","Helensvale","QLD",4212,153.319179,-27.887707,"General practice service","GP",12
"Queens Beach Medical Centre","Bowen","QLD",4805,148.22867861,-19.97673755,"General practice service","GP",5
"South Kempsey Medical Centre","East Kempsey","NSW",2440,152.83965308,-31.07997323,"General practice service","GP",1
"Parenting Centre - North West","Montello","TAS",7320,145.898132324219,-41.057975769043,"Maternal, child and family health service","GP",1
"Gulgong Community Health Centre Nursing Service","Gulgong","NSW",2852,149.522933959961,-32.3664436340332,"Nurse led clinic","GP",4
"Wyndham City Council - Community Support","Werribee","VIC",3030,144.670593261719,-37.8968849182129,"Maternal, child and family health service","GP",34
"Anson Medical","Orange","NSW",2800,149.100357055664,-33.2774963378906,"General practice service","GP",32
"Gladstone Community Health Service","Gladstone","QLD",4680,151.248397827148,-23.8482818603516,"Maternal, child and family health service","GP",11
"Bindoon Child Health Centre","Bindoon","WA",6502,116.142189025879,-31.3431739807129,"Maternal, child and family health service","GP",3
"Poet's Corner Medical Centre","Redfern","NSW",2016,151.20936,-33.894448,"General practice skin cancer service","GP",9
"Woods Point Community Health Centre","Woods Point","VIC",3723,146.257141113281,-37.569580078125,"Nurse led clinic","GP",1
"Secret Harbour Family Doctors","Secret Harbour","WA",6173,115.758865356445,-32.4075355529785,"General practice service","GP",3
